Gatenavn,Kommentar,Dato,Tidpunkt,lat,lon
AAGOTS VEI,Hele (Noe privat ),09.05.2023,07.00-19.00,59.8909505,10.8401424
AASMUND VINJES VEI,Hele,18.04.2023,07.00-19.00,59.9432381,10.7110821
AASTA HANSTEENS VEI,Hele,28.04.2023,07.00-19.00,59.9614665,10.9198752
ABBEDIEKOLLEN,Hele,25.05.2023,07.00-19.00,59.9269697,10.6655542
ABBEDIENGVEIEN,Hele,25.05.2023,07.00-19.00,59.9253454,10.6702963
ABBEDISVINGEN,Hele,25.05.2023,07.00-19.00,59.9250252,10.6638275
ABILDSØFARET,Hele,09.05.2023,07.00-19.00,59.8824079,10.8201383
ABILDSØVEIEN,Hele,09.05.2023,07.00-19.00,59.8815869,10.8196981
ADAM HIORTHS VEI,Terneveien – Hasleveien/Ende,03.05.2023,07.00-19.00,59.9257335,10.7865461
ADMIRAL BØRRESENS VEI,Hele,21.04.2023,07.00-19.00,59.9004108,10.6898367
ADVENTVEIEN,Hele,25.05.2023,07.00-19.00,59.9231505,10.6657944
ADVOKAT DEHLIS PLASS,Plass – Rundkjøring,23.04.2023,19.00-07.00,59.9391279,10.758895
ADVOKAT DEHLIS PLASS,Bjølsengata – Maridalsveien,23.04.2023,19.00-07.00,59.9391279,10.758895
AGATHE GRØNDAHLS GATE,Vogts Gt – Jolly Kr. Johansens Gt,04.05.2023,07.00-19.00,59.9360294,10.7722456
AGMUND BOLTS VEI,Hele,10.05.2023,07.00-19.00,59.9148584,10.8127808
AGRONOMVEIEN,Hele,09.05.2023,07.00-19.00,59.8836524,10.8225489
AKEBAKKESKOGEN,Hele,28.04.2023,07.00-19.00,59.9512395,10.7990967
AKERLIA,Hele,21.04.2023,07.00-19.00,59.9478155,10.868974
AKERSBAKKEN,Maridalsveien – Ullevålsveien,24.04.2023,07.00-19.00,59.9237594,10.7461616
AKERSBORG TERRASSE,Hele,21.04.2023,07.00-19.00,59.9397382,10.7330405
AKERSELVA,Lakkegata – Nylandsveien,03.05.2023,07.00-19.00,59.96050767568411,10.77474754908406
AKERSELVA,Lillogata,03.05.2023,07.00-19.00,59.96050767568411,10.77474754908406
AKERSELVAALMENNINGEN,Trelastgata – Dronning Eufemias Gate,03.05.2023,07.00-19.00,59.9138688,10.7522454
AKERSGATA,Akersveien – Henrik Ibsens Ring,16.04.2023,19.00-07.00,59.914054,10.7426683
AKERSVEIEN,Thor Olsens Gt – Akersbakken,20.04.2023,07.00-19.00,59.9208321,10.7465681
ALF BJERCKES VEI,Hele,18.04.2023,07.00-19.00,59.9347372,10.836495
ALFASET 3. INDUSTRIVEI,Inn til posten,09.05.2023,19.00-07.00,59.9326832,10.8465376
ALMEVEIEN,Hele,05.05.2023,07.00-19.00,59.9540739,10.7335025
ALNABRUVEIEN,Hele,15.05.2023,19.00-07.00,59.9251464,10.8347246
ALNAFETGATA,Ekebergeveien – Alnagata,28.04.2023,07.00-19.00,59.90274,10.7719642
ALNAGATA,Arctanders Gate – Ende,28.04.2023,07.00-19.00,59.9031711,10.7737083
ALNAGATA,Arctanders Gate – Konows Gate,28.04.2023,07.00-19.00,59.9031711,10.7737083
ALNAPARKVEIEN,Hele,09.05.2023,07.00-19.00,59.9402075,10.8789967
ALUNDAMVEIEN,Hele,03.05.2023,07.00-19.00,59.966748,10.8652645
ALUNSJØVEIEN,Hele,03.05.2023,07.00-19.00,59.9632988,10.8640797
AMAGERVEIEN,Hele,10.05.2023,07.00-19.00,59.9512679,10.6614837
AMALDUS NIELSENS PLASS,Tidemands Gate – Eckersbergs Gate,14.04.2023,07.00-19.00,59.9243052,10.7135142
AMMERUD,G/S og plasser,25.04.2023,07.00-19.00,59.9640219,10.871904
AMMERUDGRENDA,Hele,28.04.2023,07.00-19.00,59.9675168,10.8723963
AMMERUDHELLINGA,Ammerudveien-Ammerudgrenda,28.04.2023,07.00-19.00,59.9620202,10.8722147
AMMERUDHELLINGA,Tjernveien-Ammerudveien,03.05.2023,07.00-19.00,59.9620202,10.8722147
AMMERUDVEIEN,Ammerudrudveien Nr. 49–70,28.04.2023,07.00-19.00,59.9645006,10.8704451
AMMERUDVEIEN,Ammerudrudveien Nr. 21–37,28.04.2023,07.00-19.00,59.9645006,10.8704451
AMMERUDVEIEN,Hele,28.04.2023,07.00-19.00,59.9645006,10.8704451
AMTMANN MEINICHS GATE,Borger Withs Gt – Sandakervn,25.04.2023,07.00-19.00,59.9418887,10.7732066
AMUND HELLANDS VEI,Hele,17.04.2023,07.00-19.00,59.857551,10.8024585
ANKERBROA,Torggata – Søndre Gate,08.05.2023,19.00-07.00,59.9138688,10.7522454
ANKERVEIEN,Frognerseterveien- Setra veien,19.04.2023,19.00-07.00,59.9591161,10.6511859
ANKERVEIEN,Sørkedalsveien-Holmenkollvein,24.04.2023,19.00-07.00,59.9591161,10.6511859
ANKERVEIEN,til Erkraveien (velvei),27.04.2023,07.00-19.00,59.9591161,10.6511859
ANKERVEIEN,Velvei,22.05.2023,07.00-19.00,59.9591161,10.6511859
ANKERVEIEN,Fra Olav Aukrust vei,22.05.2023,07.00-19.00,59.9591161,10.6511859
ANNA PLEYMS VEI,Hele,28.04.2023,07.00-19.00,59.9668985,10.9103256
ANNA ROGSTADS VEI,Hele,17.04.2023,07.00-19.00,59.9477408,10.8286933
ANNA SETHNES GATE,Torshovgata – Oskar Braatens Gt,09.05.2023,07.00-19.00,59.9324055,10.7672657
ANNE MARIES VEI,Hele,18.04.2023,07.00-19.00,59.9392741,10.7125145
ANSGAR SØRLIES VEI,Solefallsveien – Øysteins Plass/Hovinvn,02.05.2023,07.00-19.00,59.9201483,10.7857843
ANTENNEVEIEN,Hele,25.04.2023,07.00-19.00,59.8748012,10.8172243
ANTON SCHJØTHS GATE,Geitmyrsveien – Ullevålsveien – Nr 23,24.04.2023,07.00-19.00,59.9306729,10.7391686
ANTON TSCHUDIS VEI,Hele,11.05.2023,07.00-19.00,59.9348212,10.8199344
APALLØKKVEIEN,Hele,24.04.2023,07.00-19.00,59.9551774,10.8601059
APALVEIEN,Hele,18.04.2023,07.00-19.00,59.936421,10.714872
ARBINS GATE,Løkkevn – Henrik Ibsens Gt,09.05.2023,19.00-07.00,59.9143706,10.7265239
ARBOS GATE,Kirkeveien – Blindvei,17.04.2023,07.00-19.00,59.9284593,10.7140408
ARCTANDERS GATE,Alnagate – Konows Gt,28.04.2023,07.00-19.00,59.9029289,10.773585
ARENDALSGATA,Kristiansands Gate – Bentsebrugata,23.04.2023,19.00-07.00,59.9374547,10.7559828
ARENDALSGATA,Trapp V/Halvor Schous Gate,23.04.2023,19.00-07.00,59.9374547,10.7559828
ARENDALSGATA,V/Taxiholdeplass,04.05.2023,07.00-19.00,59.9374547,10.7559828
ARILDS VEI,Hele,04.05.2023,07.00-19.00,59.9582271,10.7900882
ARMAUER HANSENS GATE,General Birchs Gt – Kirkeveien,20.04.2023,07.00-19.00,59.9339531,10.7399745
ARNE GARBORGS PLASS,Grubbegata – Akersgata,11.05.2023,19.00-07.00,59.91677499999999,10.744326
ARNE GARBORGS VEI,Hele,05.05.2023,07.00-19.00,59.9078791,10.8404426
ARNEBRÅTVEIEN,Ankerveien- Stasjonsveien,19.04.2023,19.00-07.00,59.9504948,10.666611
ARNEBRÅTVEIEN,fra Stasjonsveien (husk vel veiene),02.05.2023,07.00-19.00,59.9504948,10.666611
ARNEBRÅTVEIEN,nr 119-153,10.05.2023,07.00-19.00,59.9504948,10.666611
ARNES VEI,Hele,26.04.2023,07.00-19.00,59.9492755,10.7891194
ARNLJOT GELLINES VEI,Enebakkveien – Ende /Blindvei.,11.05.2023,07.00-19.00,59.9056518,10.7968891
ARNLJOT GELLINES VEI,Trapp V/ Gangbru Over Jernbanen,02.05.2023,07.00-19.00,59.9056518,10.7968891
ARNSTEIN ARNEBERG VEI,Hele,24.05.2023,07.00-19.00,59.9262078,10.6951913
ARNULF ØVERLANDS VEI,Hele,20.04.2023,19.00-07.00,59.9725612,10.6442537
ARTHUR NORDLIES VEI,Hele,27.04.2023,07.00-19.00,59.9565311,10.8649448
ARUPS GATE,Oslo Gt – Klostergata,11.05.2023,07.00-19.00,59.9072106,10.7700355
ARUPS GATE,Trapp V/Undergang Mot H. Hårdrådes Plass,11.05.2023,07.00-19.00,59.9072106,10.7700355
ARVESETVEIEN,Delvis privat,09.05.2023,19.00-07.00,59.9294722,10.845374
ASALVEIEN,Hele,05.05.2023,07.00-19.00,59.9534861,10.7482826
ASBJØRNSENS VEI,Hele,09.05.2023,07.00-19.00,59.9655217,10.7840735
ASCHEHOUGS VEI,Hele,28.04.2023,07.00-19.00,59.9482113,10.7963097
ASKEKROKEN,Hele,24.05.2023,07.00-19.00,59.9230222,10.682158
ASKELADDVEIEIEN,Hele,21.04.2023,07.00-19.00,59.9431546,10.7313241
ASKERGATA,Fagerheimgata – Ole Bulls Gt,09.05.2023,07.00-19.00,59.9304464,10.7684176
ASKEVEIEN,Hele,24.05.2023,07.00-19.00,59.9244476,10.6842895
ASLAKVEIEN,Hele,27.04.2023,07.00-19.00,59.9405846,10.6498672
ASLAUG VAAS VEG,Hele,22.05.2023,07.00-19.00,59.9617749,10.651992
ASPEHAUGVEIEN,Hele,02.05.2023,07.00-19.00,59.9445874,10.6765568
ASPERUDVEIEN,Hele,25.04.2023,19.00-07.00,59.838842,10.7994583
ASPESTIEN,Hele,19.04.2023,07.00-19.00,59.8994155,10.7765639
ASTRIDS VEI,Hele,24.05.2023,07.00-19.00,59.9245921,10.6824734
AUGUST CAPPELENS GATE,Kirkeveien – Fagerborggata,25.04.2023,07.00-19.00,59.933384,10.7280885
AURSKOGGATA,Normannsgata – Elverumgata,15.05.2023,07.00-19.00,59.9114642,10.782407
AVSTIKKEREN,Hele,25.04.2023,07.00-19.00,59.8686204,10.8265026
AXEL BRINCHS VEI,Hele,05.05.2023,07.00-19.00,59.9006015,10.8317503
AXEL FLINDERS VEI,Hele,13.04.2023,07.00-19.00,59.8693211,10.7930276
AXEL HUITFELDTS VEI,Hele,13.04.2023,07.00-19.00,59.8720032,10.7833976
AXEL MAURERS VEI,Nybrua – Ankerbrua,03.05.2023,07.00-19.00,59.9178541,10.7575733
BADEBAKKEN,Maridalsveien – Ende,09.05.2023,07.00-19.00,59.9459367,10.762192
BADSTUGATA,Mariboes Gate – Torggata,03.05.2023,19.00-07.00,59.9161863,10.7508752
BAKKEHAUGVEIEN,fra blåsebortveien,03.05.2023,07.00-19.00,59.9506667,10.7564615
BAKKEHAUGVEIEN,Hele,03.05.2023,07.00-19.00,59.9506667,10.7564615
BAKKELIKROKEN,Hele,25.05.2023,07.00-19.00,59.9317316,10.6841939
BAKKERUDVEIEN,Hele,24.04.2023,07.00-19.00,59.8693841,10.8060938
BAKKETOPPEN,Hele,17.04.2023,07.00-19.00,59.8529006,10.8072918
BALCHENS GATE,Frederik Stangs Gate – Gimleveien,18.04.2023,07.00-19.00,59.9183201,10.707894
BALDERS GATE,Vestheimgt – Løvenskiolds Gt – Fr. Stangs Gt,18.04.2023,07.00-19.00,59.9189796,10.7111266
BALLPLASSVEIEN,Hele,19.04.2023,07.00-19.00,59.8977201,10.7820542
BAMSEVEIEN,Hele,12.05.2023,07.00-19.00,59.9457075,10.6820194
BANEVEIEN,Hele,05.05.2023,07.00-19.00,59.9093022,10.8349962
BARLIVEIEN,Hele,08.05.2023,07.00-19.00,59.9610101,10.7506169
BARNEHJEMSVEIEN,Hele,19.04.2023,07.00-19.00,59.8980074,10.7864076
BAUNEVEIEN,Hele,20.04.2023,07.00-19.00,59.8906891,10.7947778
BEDRIFTSVEIEN,Hele,19.04.2023,19.00-07.00,59.945433,10.8678879
BEHRENS` GATE,Niels Juels Gt – Oscars Gt,27.04.2023,07.00-19.00,59.9166294,10.7165562
BEIERBRUA,Biermanns Gate – Sagveien,04.05.2023,19.00-07.00,59.9309298,10.7577166
BEITEVEIEN,Hele,19.04.2023,19.00-07.00,59.8969103,10.8143507
BEKKEFARET,Hele,19.05.2023,07.00-19.00,59.9259848,10.6610964
BEKKELAGSTERRASSEN,Hele,13.04.2023,07.00-19.00,59.8757494,10.7802095
BEKKELIBAKKEN,Hele,25.05.2023,07.00-19.00,59.9312008,10.6845872
BEKKELISTUBBEN,Hele,25.05.2023,07.00-19.00,59.9328185,10.6844574
BEKKELIVEIEN,Hele,25.05.2023,07.00-19.00,59.9313588,10.6828929
BEKKENSTENVEIEN,Vestbyveien-Vestbyveien,03.05.2023,07.00-19.00,59.9552285,10.8916284
BEKKENSTENVEIEN,Grorudveien-Vestbyveien,07.05.2023,19.00-07.00,59.9552285,10.8916284
BEKKEVEIEN,Hele,03.05.2023,07.00-19.00,59.9050443,10.8163514
BEKKEVOLLVEIEN,Hele,25.04.2023,07.00-19.00,59.9460907,10.9167173
BENNECHES GATE,Sofies Gate – Frydenlunds Gate,15.05.2023,07.00-19.00,59.9248367,10.7360957
BENTSEBRUGATA,Maridalsveien – Vogts Gate,23.04.2023,19.00-07.00,59.9364939,10.7614497
BENTSEBRUGATA,Trapp V/Bentsegata,23.04.2023,19.00-07.00,59.9364939,10.7614497
BENTSEBRUGATA/LILLEBORG,Treschows Gate – Bentsebrugata,03.05.2023,07.00-19.00,59.9336084,10.7648113
BENTSEGATA,Maridalsveien – Bentsebrugata,04.05.2023,07.00-19.00,59.937824,10.7585294
BERGENSGATA,Maridalsveien – Nydalsveien,23.04.2023,19.00-07.00,59.9425521,10.7596638
BERGENSVEIEN,Hele,08.05.2023,19.00-07.00,59.9638524,10.8835189
BERGKRYSTALLEN,Hele,24.04.2023,07.00-19.00,59.868973,10.8195172
BERGLJOTS VEI,Einars Vei – Einars Vei,02.05.2023,07.00-19.00,59.9234452,10.7842987
BERGLYVEIEN,Hele,26.04.2023,07.00-19.00,59.8317064,10.8063674
BERGRÅDVEIEN,Fra Blåsbortveien til Bergrådveien,03.05.2023,07.00-19.00,59.9539672,10.7582156
BERGRÅDVEIEN,Fra Heierstuveien til Rolf Wikstrømsvei,05.05.2023,07.00-19.00,59.9539672,10.7582156
BERGSALLEN,Hele,21.04.2023,07.00-19.00,59.9457223,10.7352085
BERGSLIA,Hele,21.04.2023,07.00-19.00,59.948989,10.7374639
BERGSLIENS GATE,Hele,17.04.2023,07.00-19.00,59.925625,10.7275302
BERGSTIEN,Akersbakken – Geitemyrsveien,24.04.2023,07.00-19.00,59.9247616,10.743433
BERGTUNVEIEN,Hele,02.05.2023,07.00-19.00,59.9464307,10.9254017
BERNHARD GETZ` GATE,Keysers Gt – Peder Claussøns Gt,09.05.2023,19.00-07.00,59.9171894,10.7425682
BERNHARD HERRES VEI,Hele,02.05.2023,07.00-19.00,59.9413727,10.6817493
BERNHUSVEIEN,Hele,20.04.2023,07.00-19.00,59.88173,10.785777
BERNT ANKERS GATE,Møllergate – Storgata,03.05.2023,19.00-07.00,59.9160271,10.7520193
BERNT KNUDSENS VEI,Hele,21.04.2023,07.00-19.00,59.8736112,10.8037655
BERTRAMJORDET,Hele,26.04.2023,07.00-19.00,59.8249305,10.7846968
BERTRAND NARVESENS VEI,Hovinveien – Gladengveien,04.05.2023,19.00-07.00,59.9198483,10.7896357
BERVENS LØKKE,Reichweins Gt – Observatoriegt,13.04.2023,07.00-19.00,59.9126619,10.7202499
BESTUM TVERRVEI,Hele,19.05.2023,07.00-19.00,59.9192612,10.6557635
BESTUMVEIEN,Fra Sigrud Iversen vei,19.05.2023,07.00-19.00,59.9200156,10.6502156
BESTUMVEIEN,til Sigrud Iversen.,26.05.2023,07.00-19.00,59.9200156,10.6502156
BETZY KJESLBERG VEI,Hele,26.04.2023,07.00-19.00,59.9532767,10.7727524
BEVERVEIEN,Hele,18.04.2023,07.00-19.00,59.9431535,10.8473974
BIDENKAPS GATE,Wessels Gate – Nordahl Bruns Gate,24.04.2023,07.00-19.00,59.919683,10.7409779
BIERMANNS GATE,Toftes Gate – Sagveien Ved Beierbrua,04.05.2023,19.00-07.00,59.9304831,10.7605202
BIKUBEN,Karl Andersenvei-Fredheimveien,02.05.2023,07.00-19.00,59.9440663,10.9246224
BINNEVEIEN,Hele,12.05.2023,07.00-19.00,59.9499491,10.6838648
BIRCH-REICHENWALDS GATE,Borger Withs Gate – Sandakerveien,26.04.2023,07.00-19.00,59.9430395,10.7746699
BIRGER OLIVERS VEI,Hele,21.04.2023,07.00-19.00,59.8752747,10.7935957
BIRGITTE HAMMERS VEI,Hele,13.04.2023,07.00-19.00,59.8542129,10.7906488
BISKOP GRIMELUNDS VEI,Hele,12.05.2023,07.00-19.00,59.9423915,10.6914806
BISKOP HEUCHS VEI,Hele,03.05.2023,07.00-19.00,59.9452984,10.7549905
BISKOP JENS NILSSØNS GATE,Strømsveien – Etterstadsletta Øst/Ende,03.05.2023,19.00-07.00,59.9083001,10.7955477
BISLETT GATA,Pilestredet – Dalsbergstien,10.05.2023,19.00-07.00,59.9242418,10.7328949
BISP NIKOLAS` GATE,Jens Bjelkes Gate – Kjølberggata,05.05.2023,07.00-19.00,59.9120261,10.7760839
BISPEGATA,Dronning Eufemias Gate – St. Halvards Gate,11.05.2023,19.00-07.00,59.9061316,10.7654631
BISPELUELIA,Hele,26.04.2023,07.00-19.00,59.8464619,10.8166361
BJARTVEIEN,Hele,02.05.2023,07.00-19.00,59.8953813,10.8491608
BJERKASTIEN,Hele,26.04.2023,07.00-19.00,59.9526485,10.8511199
BJERKEBAKKEN,Til Linhusveien,27.04.2023,07.00-19.00,59.9554812,10.6367082
BJERKEBAKKEN,Fra Linhusveien,27.04.2023,07.00-19.00,59.9554812,10.6367082
BJERKELUNDGATA,Seilduksgata – Helgesens Gate,12.05.2023,07.00-19.00,59.9248768,10.7601901
BJERKESLLÈEN,Hele,26.04.2023,07.00-19.00,59.9138688,10.7522454
BJERREGAARDS GATE,Ullevålsveien – Uelands Gate,20.04.2023,07.00-19.00,59.9250642,10.745295
BJØRN BONDES VEI,Hele,26.04.2023,07.00-19.00,59.8294218,10.789463
BJØRN FARMANNS GATE,Skarpsnogt – Drammensvn,27.04.2023,07.00-19.00,59.9121851,10.7070735
BJØRN STALLARES VEI,Trondheimsveien – Sinsenterrassen,03.05.2023,07.00-19.00,59.9325679,10.7804256
BJØRNEHIET,Hele,12.05.2023,07.00-19.00,59.9485409,10.6834803
BJØRNERABBEN,Hele,24.04.2023,07.00-19.00,59.9302549,10.6335341
BJØRNERUDVEIEN,Hele,27.04.2023,19.00-07.00,59.8433678,10.8158301
BJØRNHEIMVEIEN,"Hele, inkl stikkvei",26.04.2023,07.00-19.00,59.9419769,10.913192
BJØRNSLETTVEIEN,Hele,17.04.2023,07.00-19.00,59.9286207,10.6362546
BJØRNVEIEN,Hele,12.05.2023,07.00-19.00,59.9506235,10.6856455
BJØRNÅSVEIEN,Hele,27.04.2023,07.00-19.00,59.8303168,10.8331612
BLAKKENS VEI,Hele,27.04.2023,07.00-19.00,59.8421616,10.8302956
BLIDERNVEIEN,til Kirkeveien,16.04.2023,19.00-07.00,59.9374148,10.7222151
BLINDERNVEIEN,Kirkeveien – Halvor Blindern Plass,17.04.2023,19.00-07.00,59.9374148,10.7222151
BLINDERNVEIEN TURVEI,Blindernveien – Sognsveien,25.04.2023,07.00-19.00,59.9374148,10.7222151
BLOKKAVEIEN,Hele,19.05.2023,07.00-19.00,59.9238178,10.6528064
BLÅBÆRSVINGEN,Hele,22.05.2023,07.00-19.00,59.9713233,10.6524623
BLÅSBORTVEIEN,Hele,03.05.2023,07.00-19.00,59.9514289,10.7557985
BOGERUDSLYNGEN,Hele,10.05.2023,07.00-19.00,59.8789583,10.8390955
BOGERUDVEIEN,Hele,10.05.2023,07.00-19.00,59.878855,10.8381097
BOGSTA NEDRE,P-plass,16.04.2023,19.00-07.00,59.9270711,10.7202092
BOGSTAD ØVRE,P-plass,16.04.2023,19.00-07.00,59.9270711,10.7202092
BOGSTADVEIEN,Hele,19.04.2023,19.00-07.00,59.9270711,10.7202092
BOLTELØKKA ALLÉ,Eugenies Gate – Ullevålsveien,10.05.2023,07.00-19.00,59.9282802,10.7365273
BORGENBAKKEN,Hele,20.04.2023,07.00-19.00,59.9367199,10.6980623
BORGENVEIEN,Hele,20.04.2023,07.00-19.00,59.9396686,10.7011478
BORGER WITHS GATE,H. N.Hauges Gt. – Birch Reichenwalds Gt,26.04.2023,07.00-19.00,59.9409782,10.7756145
BORGER WITHS GATE,(Nr 19-33)Kyrre Grepps Gt – Borger Withs Gt,26.04.2023,07.00-19.00,59.9409782,10.7756145
BORGESTADVEIEN,Hele,05.05.2023,07.00-19.00,59.9571637,10.7392522
BORGGATA,Grønlandsleiret – Jens Bjelkes Gate,12.05.2023,07.00-19.00,59.9119559,10.7702785
BRAGEVEIEN,Stensgata – Sofies Gate,20.04.2023,07.00-19.00,59.9311654,10.7339488
BRANDTS GATE,Wdm Thranes Gt – Bjerregaards Gate,24.04.2023,07.00-19.00,59.9265959,10.7448066
BRANDTS GATE,Geitmyrsveien – Fougstads Gate,25.04.2023,07.00-19.00,59.9265959,10.7448066
BRANDTS GATE,Trapp V/Hermann Foss Gate,25.04.2023,07.00-19.00,59.9265959,10.7448066
BRANNFJELLVEIEN,Vårveien – Ekebergveien,19.04.2023,07.00-19.00,59.8953469,10.7863515
BRANNFJELLVEIEN,Olleveien – Sandstuveien,20.04.2023,07.00-19.00,59.8953469,10.7863515
BRANNVAKTVEIEN,Hele,04.05.2023,07.00-19.00,59.9531825,10.7896036
BRANTENBORGVEIEN,Hele,16.05.2023,07.00-19.00,59.9521147,10.7057598
BRATTLIA,Hele,05.05.2023,07.00-19.00,59.9138688,10.7522454
BREDES VEI,Hele,26.04.2023,07.00-19.00,59.9427184,10.933723
BREDO STABELLS VEI,Hele,03.05.2023,07.00-19.00,59.9429734,10.7450898
BREDTVETVEIEN,Hele,19.04.2023,07.00-19.00,59.9469867,10.8601892
BREGNEVEIEN,Hele,05.05.2023,07.00-19.00,59.9570253,10.7365923
BREIDABLIKKVEIEN,Hele,14.04.2023,07.00-19.00,59.8584849,10.7869012
BREIENS VEI,Hele,17.04.2023,07.00-19.00,59.8585526,10.8065132
BREIGATA,Lakkegata – Motzfeldts Gt,12.05.2023,07.00-19.00,59.913946,10.7613628
BREISJÅVEIEN,Lørenveien – Sinsenveien,03.05.2023,07.00-19.00,59.9342532,10.7876478
BREKKELIA,,11.05.2023,07.00-19.00,59.961264,10.7666942
BREKKEVEIEN,Hele,04.05.2023,19.00-07.00,59.9688892,10.7711435
BREKKEVEIEN,Hele,09.05.2023,07.00-19.00,59.9688892,10.7711435
BRENNAVEIEN,Hele,28.04.2023,07.00-19.00,59.8465883,10.8418241
BRENNERIVEIEN,Møllerveien – Maridalsveien,12.05.2023,07.00-19.00,59.9204096,10.7526846
BRETTEVILLES GATE,Sandakerveien – Kyrre Grepps Gate,26.04.2023,07.00-19.00,59.9408217,10.7738112
BRINKEN,Åkebergvn – Ende Bak Økernvn 13,15.05.2023,07.00-19.00,59.9116739,10.7788495
BRINKEN,P-Plass/ Kampengata – Snuplassen,15.05.2023,07.00-19.00,59.9116739,10.7788495
BRINKEN,Kampen P-Plass Kjølberggata – Norderhovgata,15.05.2023,07.00-19.00,59.9116739,10.7788495
BRISKEBYVEIEN,Holtegata – Camilla Colletts Gt,13.04.2023,19.00-07.00,59.9210564,10.7166655
BRISKEBYVEIEN,Schives Gate – Holtegata,19.04.2023,07.00-19.00,59.9210564,10.7166655
BROBEKKVEIEN,Statsråd Mahiesen Vei – Refstadveien,12.05.2023,07.00-19.00,59.9341149,10.8269713
BROCHMANNS GATE,Treschows Gate – Maridalsveien,26.04.2023,07.00-19.00,59.9402962,10.7636129
BROCHMANNSLØKKA,Treschows Gt – Badebakken,03.05.2023,07.00-19.00,59.9138688,10.7522454
BROLANDSVEIEN,Hele,08.05.2023,07.00-19.00,59.9500417,10.9359201
BRUNAS VEI,Hele,27.04.2023,07.00-19.00,59.8441616,10.8291714
BRYNJEVEIEN,Hele,09.05.2023,07.00-19.00,59.9647819,10.7564536
BRYNSALLÉEN,Hele,18.04.2023,07.00-19.00,59.9108137,10.8156239
BRYNSENGVEIEN,Hele,18.04.2023,07.00-19.00,59.9110123,10.8143921
BRÅTEN ALLÈEN,Hele,26.04.2023,07.00-19.00,59.866913,10.793775
BUEVEIEN,Hele,28.04.2023,07.00-19.00,59.9452893,10.7932997
BUKKENEBRUSES VEI,Hele,20.04.2023,07.00-19.00,59.9446062,10.7228431
BYGDØY KAPELLVEI,Strømsborgveien - inn til G/S,21.04.2023,07.00-19.00,59.9050734,10.6801639
BYGDØY KAPELLVEI,Huk Aveny – Bom/Gangvei,08.05.2023,07.00-19.00,59.9050734,10.6801639
BYGDØY TERASSE,Bygdøy Kapellvei – Fredriksborgveien,08.05.2023,07.00-19.00,59.9032399,10.6805851
BYGDØYNESVEIEN,Hele,21.04.2023,07.00-19.00,59.9023605,10.6922501
BYGDØYVEIEN,Hele,21.04.2023,07.00-19.00,59.9134984,10.6808569
BYGGVEIEN,Hele,19.04.2023,19.00-07.00,59.8958541,10.8097477
BÅHUSVEIEN,Trondheimsveien – Breisjåveien,02.05.2023,07.00-19.00,59.9325786,10.7827508
BÅHUSVEIEN,Sinsen P-Plass Bjørn Stallares Vei – Båhusveien,02.05.2023,07.00-19.00,59.9325786,10.7827508
BÅLVEIEN,Hele,08.05.2023,07.00-19.00,59.9612987,10.7502409
BÅNKALLSTUBBEN,Hele,28.04.2023,07.00-19.00,59.9725537,10.9203064
BÅRD SKOLEMESTERS VEI,Hele,15.05.2023,07.00-19.00,59.9449502,10.8112996
BÆRUMVEIEN,Vækerøveien-Fylkes grensa,04.05.2023,19.00-07.00,59.9259393,10.6300052
BØLERBAKKEN,Hele,04.05.2023,07.00-19.00,59.8848832,10.8454559
BØLERLIA,Hele,28.04.2023,07.00-19.00,59.8794153,10.8525106
BØLERSKOGEN,Hele,28.04.2023,07.00-19.00,59.8799066,10.8494461
BØLERSKRENTEN,Hele,04.05.2023,07.00-19.00,59.8810706,10.8427291
BØLERSLETTA,Hele,04.05.2023,07.00-19.00,59.885254,10.8440159
BØLERSVINGEN,Hele,28.04.2023,07.00-19.00,59.8871693,10.839581
BØLERVEIEN,Hele,28.04.2023,07.00-19.00,59.8864258,10.8412663
BØRRESTUVEIEN,Hele,18.04.2023,07.00-19.00,59.9447123,10.7125176
C.A. PIHLS GATE,Drammensveien – Tostrups Gate,17.04.2023,07.00-19.00,59.9166556,10.7010561
C.A.TORSTENSENS VEI,Hele,25.04.2023,07.00-19.00,59.9376168,10.6780976
CALMEYERS GATE,Hausmanns Gate – Youngs Gt,11.05.2023,19.00-07.00,59.9158829,10.7534041
CAMILLA COLLETTS VEI,Riddervolds Plass – Uranienborgveien,13.04.2023,19.00-07.00,59.9202337,10.7215262
CAPPELENS VEI,Hele,14.04.2023,07.00-19.00,59.871456,10.7882863
CARL GRØNDAHLS VEI,Hele,03.05.2023,07.00-19.00,59.9467573,10.7520339
CARL JEPPESENS GATE,Hans Nielsen Hauges Gate– Ende,04.05.2023,07.00-19.00,59.9394225,10.7723728
CARL KJELSENS VEI,Maridalsveien- Sognsveien,25.04.2023,19.00-07.00,59.9604191,10.7502174
CASPAR STORMS VEI,Hele,10.05.2023,07.00-19.00,59.9199988,10.825685
CASPARIS GATE,Wdm. Thranes Gate – Akersbakken,24.04.2023,07.00-19.00,59.9263052,10.7478166
CATO GULDBERGS VEI,Gabels Gate – Ende Blindvei,18.04.2023,07.00-19.00,59.9151118,10.7105896
CECILIE THORESENS VEI,Hele,19.04.2023,19.00-07.00,59.8770341,10.8097213
CHARLOTTE ANDERSENS VEI,Hele,20.04.2023,07.00-19.00,59.9399542,10.6958654
CHRISTIAN BENNECHES VEI,Hele,21.04.2023,07.00-19.00,59.9053288,10.6918605
CHRISTIAN KROHGS GATE,Brugata – Storgata,11.05.2023,19.00-07.00,59.9154466,10.7590577
CHRISTIAN MICHELSENS GATE,Trondheimsveien – Vogts Gate,25.04.2023,19.00-07.00,59.9291805,10.7693157
CHRISTIAN SCHOUS VEI,Hele,28.04.2023,07.00-19.00,59.9459584,10.7999864
CHRISTOFFER HELLUMSVEI,Hele,19.04.2023,07.00-19.00,59.9496843,10.8688121
CHRISTOPHER HANSEENS VEI,Hele,20.04.2023,07.00-19.00,59.9404367,10.7275695
CHRISTOPHERS VEI,Hele,03.05.2023,07.00-19.00,59.949794,10.7518113
CLAUS BORCHS VEI,Hele,03.05.2023,07.00-19.00,59.943843,10.7456708
CLAUS RIIS` GATE,Uelandsgate – Maridalsveien,04.05.2023,07.00-19.00,59.9309925,10.7523977
CLEMENS´ GATE,Hele,05.05.2023,07.00-19.00,59.9052731,10.7671622
COLBJØRNSENS GATE,Parkveien – Haxthausens Gate,13.04.2023,19.00-07.00,59.9170451,10.7182592
COLLETTS GATE,Ullevålsveien – Griffenfeldts Gt./Ring 2,10.05.2023,19.00-07.00,59.9293231,10.7424494
COLLETTS GATE,Ullevålsveien – Sofies Gate,10.05.2023,07.00-19.00,59.9293231,10.7424494
CONRADIS GATE,Rathkes Gate – Trondheimsveien,12.05.2023,07.00-19.00,59.9206461,10.7654952
CORT ADELERS GATE,Huitfeldts Gate – Ruseløkkveien (Parallell Vei),13.04.2023,07.00-19.00,59.9131344,10.7235157
CORT ADLERS GATE,Henrik Ibsens Gt – Munkedamsveien,16.04.2023,19.00-07.00,59.9131344,10.7235157
DAAS GATE,Briskebyvn – Jørgen Moes Gt Ved Enden,19.04.2023,07.00-19.00,59.9226453,10.7176133
DAG HAMMARSKJÃ–LDS VEI,Sinsenveien – Ulvenveien,18.04.2023,19.00-07.00,59.9138688,10.7522454
DAGALIVEIEN,Hele,22.05.2023,07.00-19.00,59.955948,10.6857965
DAGMARBAKKEN,Hele,03.05.2023,07.00-19.00,59.9584904,10.8877404
DALBAKKVEIEN,Hele,05.05.2023,07.00-19.00,59.9052948,10.8312632
DALEHAUGEN,St Halvards Gate – Enebakkveien,28.04.2023,07.00-19.00,59.9068186,10.7811987
DALERUDVEIEN,Hele,08.05.2023,07.00-19.00,59.8939247,10.8508809
DALSBERGSTIEN,Ullevålsveien – Pilestredet,16.04.2023,19.00-07.00,59.9231419,10.7362216
DALSKROKEN,Hele,12.05.2023,07.00-19.00,59.9411143,10.6874238
DALSROA,Hele,28.04.2023,07.00-19.00,59.8491227,10.8390508
DALSSVINGEN,Hele,28.04.2023,07.00-19.00,59.8503888,10.839153
DALSVEIEN,Dagaliveien-Viggo Hansteens vei,19.04.2023,07.00-19.00,59.9456163,10.6888226
DALSÅSEN,Hele,28.04.2023,07.00-19.00,59.8520925,10.8386969
DAMFARET,Hele,05.05.2023,07.00-19.00,59.9060272,10.8371228
DAMKROKEN,Hele,18.04.2023,07.00-19.00,59.9393093,10.7105483
DAMLIVEIEN,Hele,25.05.2023,07.00-19.00,59.9280368,10.6784213
DAMPLASSEN,Hele,21.04.2023,07.00-19.00,59.9433061,10.7334612
DAMSTREDET,Akersveien – Fredensborgveien,20.04.2023,07.00-19.00,59.9200245,10.7476252
DAMVEIEN,Hele,28.04.2023,07.00-19.00,59.9458122,10.7947822
DANIEL WALSTADS VEI,Hele,04.05.2023,07.00-19.00,59.9630865,10.7799634
DANMARKS GATE,Etterstadgata – Opplandsgata,12.05.2023,07.00-19.00,59.9078945,10.7887674
DANNEVIGSVEIEN,Stockfleths Gate – Maridalsveien,03.05.2023,19.00-07.00,59.9369523,10.7540749
DARRES GATE,Maridalsvn – Sannerbrua (Oppstrøms),10.05.2023,19.00-07.00,59.9275593,10.75225
DEICHMANS GATE,Iduns Gate – Wilses Gate Ved Enden,12.05.2023,07.00-19.00,59.9188007,10.7495554
DIAKONVEIEN,Hele,20.04.2023,07.00-19.00,59.9347998,10.7057633
DIRIKS` GATE,Colletts Gate – Evald Ryghs Gate,24.04.2023,07.00-19.00,59.9306955,10.7466813
DISENGRENDA,Hele,28.04.2023,07.00-19.00,59.9424608,10.7972699
DISENVEIEN,Haraldsheimveien-Tonsenveien,28.04.2023,07.00-19.00,59.9416513,10.7938589
DISENVEIEN,Hele,28.04.2023,07.00-19.00,59.9416513,10.7938589
DOKKVEIEN,Munkedamsvn – Aker Brygge,09.05.2023,19.00-07.00,59.9111721,10.7279213
DOKTOR HOLMS VEI,Hele,22.05.2023,07.00-19.00,59.9596396,10.6711979
DOKTOR SMITHS VEI,Fra Gladsvei til Grefsenveien,28.04.2023,07.00-19.00,59.9502688,10.7909873
DOKTOR SMITHS VEI,Fra Kjelsåsveien til Grefsenveien,28.04.2023,07.00-19.00,59.9502688,10.7909873
DOPS GATE,Trapp Mot Damstredet,20.04.2023,07.00-19.00,59.9194471,10.7468401
DOPS GATE,Akersveien – Fredenborgveien,24.04.2023,07.00-19.00,59.9194471,10.7468401
DORTHES VEI,Strømsborgveien - inn til privat vei,21.04.2023,07.00-19.00,59.9023829,10.6736885
DOVREGATA,Trapp V/Hallings Gate,25.04.2023,07.00-19.00,59.9219198,10.7376567
DOVREGATA,Sofies Gt – Hallings Gt.,10.05.2023,07.00-19.00,59.9219198,10.7376567
DOVREGATA,Trapp V/Krumgata,10.05.2023,07.00-19.00,59.9219198,10.7376567
DOVRESVINGEN,Hele,18.04.2023,07.00-19.00,59.8847113,10.7950068
DR. DEDICHENS VEI,Hele,04.05.2023,07.00-19.00,59.9239021,10.8679134
DRAMMENSVEIEN,Vækerøveien og inn forbi Maxbo til snuplass,18.04.2023,19.00-07.00,59.918008,10.6969409
DRAMMENSVEIEN,Fra Sjølyst-Gustav Vigelands Vei,03.05.2023,19.00-07.00,59.918008,10.6969409
DRAMMENSVEIEN,Fra Ring 2. inn forbi Hoffsbakken,24.05.2023,07.00-19.00,59.918008,10.6969409
DRAMMENSVEIEN,Nr 60 Munkedamsveien – Drammensveien,13.04.2023,19.00-07.00,59.918008,10.6969409
DRAMMENSVEIEN,Sollis Plass – Gustav Vigelands Vei,16.04.2023,07.00-19.00,59.918008,10.6969409
DRAMMENSVEIEN,(88c) Drammenveien – Ende,17.04.2023,07.00-19.00,59.918008,10.6969409
DRIVHUSVEIEN,Hele,03.05.2023,07.00-19.00,59.9023562,10.8108259
DRONNING ASTRIDS GATE,Bogstadveien – Vibes Gt / Ende Blindvei,17.04.2023,07.00-19.00,59.9261082,10.7229203
DRONNING BLANCAS VEI,Hele,21.04.2023,07.00-19.00,59.9148179,10.685426
DRONNING EUFEMIAS GATE,Trapp V/Nylandsveien,03.05.2023,07.00-19.00,59.908117,10.7563831
DRONNING MARGRETES VEI,Økernveien – Persveien,04.05.2023,19.00-07.00,59.9244027,10.8026105
DRONNING MAUDS GATE,Ruseløkkvn – Rampe Festningstunnelen,16.04.2023,19.00-07.00,59.9125308,10.7293919
DRONNING MAUDS GATE,Trapp V/Munkedamsveien,16.04.2023,19.00-07.00,59.9125308,10.7293919
DRONNINGHAVNVEIEN,Museumsveien – Ende,08.05.2023,07.00-19.00,59.9081636,10.6901807
DRÅGA,Hele,19.04.2023,07.00-19.00,59.8978145,10.7908026
DRØBAKGATA,Mogata – Hortengata,04.05.2023,07.00-19.00,59.9388329,10.751843
DUEHAUGVEIEN,Hele,20.04.2023,07.00-19.00,59.9393041,10.7251281
DUGGVEIEN,Hele,10.05.2023,07.00-19.00,59.9181775,10.8223027
DUGNADSVEIEN,Hele,17.04.2023,07.00-19.00,59.9527213,10.8222416
DUNKERS GATE,Industrigata – Holmboes Gate,17.04.2023,07.00-19.00,59.9257979,10.7207885
DYBWADS GATE,Majorstuveien – Ole Fladagers Gt,18.04.2023,07.00-19.00,59.925784,10.7165301
DYNEKILGATA,Rosenhoffgt – Ende V/Tr Vn,02.05.2023,07.00-19.00,59.9306408,10.7756753
DYRLANDSVEIEN,Hele,05.05.2023,07.00-19.00,59.9555732,10.7415985
DYVEKES VEI,Trapp V/Inges Gate,11.05.2023,19.00-07.00,59.9042822,10.7732717
DYVEKES VEI,St Halvards Gt – Konows Gt/Kværnervn,11.05.2023,19.00-07.00,59.9042822,10.7732717
DÆLENENGA,Idrettsanlegg,03.05.2023,07.00-19.00,59.9263254,10.7644894
EBBELLS GATE,Calmeyers Gate – Storgata,12.05.2023,07.00-19.00,59.9153364,10.7540591
ECKERSBERGS GATE,Hafrsfjordgata – Amaldus Nielsens Pl,14.04.2023,07.00-19.00,59.9208437,10.7087557
EDDAVEIEN,Hele,02.05.2023,07.00-19.00,59.9485817,10.6715073
EDMUND NEUPERTS GATE,Johan Selmes Gt – Agathe Grøndahls Gt,04.05.2023,07.00-19.00,59.9343961,10.773898
EDVARD GRIEGS ALLÉ,Trapp V/Roveruds Gate,26.04.2023,07.00-19.00,59.9371543,10.7768868
EDVARD GRIEGS ALLÉ,Nordkappgata – Hans N. Hauges Gt,26.04.2023,07.00-19.00,59.9371543,10.7768868
EDVARD MUNCHS VEI,Hele,27.04.2023,07.00-19.00,59.9383985,10.9148693
EDVARD STORMS GATE,Tullins Gt – Pilestredet,09.05.2023,19.00-07.00,59.919097,10.7350774
EFTASÅSEN,Hele,08.05.2023,07.00-19.00,59.8935379,10.8506964
EGEDES GATE,Arups Gate – St Halvards Gt,11.05.2023,07.00-19.00,59.9064385,10.7700797
EGNEHJEMVEIEN,Hele,28.04.2023,07.00-19.00,59.9020307,10.7801636
EIKELUNDVEIEN,Traverveien – Sperring,15.05.2023,07.00-19.00,59.9434728,10.8007619
EIKERLUNDVEIEN,Hele,28.04.2023,07.00-19.00,59.9138688,10.7522454
EIKEVEIEN,Hele,19.04.2023,07.00-19.00,59.8987043,10.7790027
EILERT SUNDTS GATE,Gyldenløves Gate – Bogstadveien,15.05.2023,07.00-19.00,59.922476,10.719234
EINAR HOLGÅRDS VEI,Hele,03.05.2023,07.00-19.00,59.9480182,10.7578792
EINAR SKJÆRAASENS VEI,Hele,23.05.2023,07.00-19.00,59.9599906,10.6853971
EINARS VEI,Grenseveien – Ende,03.05.2023,07.00-19.00,59.9226385,10.7839839
EINDRIDES VEI,Einars Vei – Ende,02.05.2023,07.00-19.00,59.9220583,10.7851027
EINERVEIEN,Hele,20.04.2023,07.00-19.00,59.8870027,10.7813782
EIRIK RAUDES VEI,Enebakkveien– Konows Gate (Nr 34),11.05.2023,07.00-19.00,59.9030512,10.7938994
EIRIKS GATE,Åkebergveien – Jens Bjelkes Gate,05.05.2023,07.00-19.00,59.9121331,10.7725144
EIVIND ASTRUPS GATE,Bjørn Farmanns Gt – Gabels Gt,14.04.2023,07.00-19.00,59.9122872,10.7078338
EKEBERGSTIEN,Hele,19.04.2023,07.00-19.00,59.900422,10.7754515
EKEBERGVEIEN,Stamhusveien – Brannfjellveien,19.04.2023,07.00-19.00,59.8768459,10.7885914
EKEBERGVEIEN,Holtet – Stamhusveien,02.05.2023,19.00-07.00,59.8768459,10.7885914
EKEBERGVEIEN,Holtet – Ljabruveien,03.05.2023,19.00-07.00,59.8768459,10.7885914
EKEBERGVEIEN,PARKERINGER,10.05.2023,19.00-07.00,59.8768459,10.7885914
EKEBERGVEIEN,Oslo Gate – Valhallveien,15.05.2023,07.00-19.00,59.8768459,10.7885914
EKELYVEIEN,Hele,15.05.2023,07.00-19.00,59.9459727,10.6981885
EKORNVEIEN,Hele,16.05.2023,07.00-19.00,59.9531559,10.702649
EKRAVEIEN,Til Linhusveien,27.04.2023,07.00-19.00,59.9560889,10.6384459
EKRAVEIEN,fra Linhusveien,27.04.2023,07.00-19.00,59.9560889,10.6384459
ELGTRÅKKET,Hele,27.04.2023,07.00-19.00,59.8341899,10.8326347
ELGVEIEN,Hele,21.04.2023,07.00-19.00,59.9420729,10.7357478
ELIAS BLIX` GATE,Hermann Foss Gt – Fougstadgata,25.04.2023,07.00-19.00,59.9278712,10.7464497
ELISENBERGVEIEN,Nobels Gate – Frognerveien,14.04.2023,07.00-19.00,59.9186332,10.7047308
ELLEFS VEI,Hele,23.04.2023,19.00-07.00,59.958145,10.9035465
ELLEN GLEDITSCH` VEI,Hele,02.05.2023,07.00-19.00,59.9663779,10.9205345
ELLINGSRUD IDRETTSANLEGG,P-Plass,13.04.2023,19.00-07.00,59.93334849999999,10.925631
ELLINGSRUDVEIEN,Hele,05.05.2023,07.00-19.00,59.9432903,10.941828
ELMHOLTVEIEN,Hele,25.05.2023,07.00-19.00,59.9242339,10.6666914
ELSTERS GATE,Neuberggata – Jacob Aalls Gt,19.04.2023,07.00-19.00,59.9256726,10.7123141
ELTONVEIEN,Hele,15.05.2023,07.00-19.00,59.939085,10.8010194
ELVEFARET,Hele,25.04.2023,07.00-19.00,59.9400161,10.635395
ELVERUMGATA,Ullernsakergt – Ende V/Kampen Barnepark,15.05.2023,07.00-19.00,59.912112,10.7836865
EMIL KORSMOS VEI,Hele,03.05.2023,07.00-19.00,59.8979896,10.8079292
ENEBAKKVEIEN,Grønmo – Siggerud,04.05.2023,19.00-07.00,59.8912454,10.8097033
ENEBAKKVEIEN,Skullerudveien – Snuplass,10.05.2023,07.00-19.00,59.8912454,10.8097033
ENEBAKKVEIEN,Strømsveien – Dalehaugen,11.05.2023,07.00-19.00,59.8912454,10.8097033
ENEBAKKVEIEN,Ryenbergveien – Ryenkrysset,11.05.2023,19.00-07.00,59.8912454,10.8097033
ENEBAKKVEIEN,Dalehaugen – Konows Gt,28.04.2023,07.00-19.00,59.8912454,10.8097033
ENERHAUGGATA,Sørligata – Smedgata,12.05.2023,07.00-19.00,59.9130664,10.7683291
ENERHAUGKLEIVA,Grønlandsleiret – Ende,12.05.2023,07.00-19.00,59.9115652,10.7677006
ENGEBRETS VEI,Hele,25.05.2023,07.00-19.00,59.9273126,10.6774568
ENGEBRÅTVEIEN,Hele,04.05.2023,07.00-19.00,59.9583467,10.7803714
ENGVEIEN,Hele,26.04.2023,07.00-19.00,59.9470285,10.7801216
ENOKS VEI,Hele,19.04.2023,07.00-19.00,59.8971783,10.7861782
ENSJØSVINGEN,Ensjøveien – Ende,12.05.2023,07.00-19.00,59.9118042,10.789855
ENSJØVEIEN,Økernveien – Strømsveien,18.04.2023,19.00-07.00,59.9142998,10.7882153
ERICH MOGENSØNS VEI,Hele,13.04.2023,19.00-07.00,59.9434217,10.8398901
ERIKA NISSENS GATE,Lammers` Gate – Agathe Grøndahls Gate,25.04.2023,07.00-19.00,59.936898,10.7715579
ERLANDSTUVEIEN,Sandstuveien – Ekebergveien,18.04.2023,19.00-07.00,59.8872396,10.78345
ERLANDSTUVEIEN,Fra Ekebergveien – Jomfrustien,20.04.2023,07.00-19.00,59.8872396,10.78345
ERLENDS VEI,Hele,19.04.2023,07.00-19.00,59.9187563,10.840398
ERLING MICHELSENS VEI,Hele,27.04.2023,07.00-19.00,59.9375064,10.9028448
ERLING MIHELSEN VEI,P-Plass,13.04.2023,19.00-07.00,59.9375064,10.9028448
ERLING SCHIØTZ` VEI,Hele,14.04.2023,07.00-19.00,59.8641027,10.7922586
ERLING SKJALGSSONS GATE,Hjørungavåggata – Solheimsgata,13.04.2023,07.00-19.00,59.919656,10.7017701
ERLINGS GATE,Svingen – Egnehjemveien,28.04.2023,07.00-19.00,59.9016031,10.7781911
ESSENDROPS GATE,Middelthuns Gt – Sørkedalsvn,26.04.2023,19.00-07.00,59.9290084,10.7100073
ETTERSTADGATA,Strømsveien – Ende/Blindvei.,11.05.2023,07.00-19.00,59.9079277,10.7927005
ETTERSTADKROKEN,Etterstadsletta – Ende,02.05.2023,07.00-19.00,59.9091767,10.808621
ETTERSTADSLETTA,Trapp V/ Gangbru Over Jernbanen,02.05.2023,07.00-19.00,59.9103935,10.796765
ETTERSTADSLETTA,Hele Inkl. Stikkvei Til Nr 2 & 49,02.05.2023,07.00-19.00,59.9103935,10.796765
EUGENIES GATE,Theresesgate – Ullevålsveien,24.04.2023,07.00-19.00,59.9273201,10.7349945
EUGÉNE HANSSENS GATE,Armauer Hansen Gt – Blindvei,20.04.2023,07.00-19.00,59.9335164,10.7382891
EVALD RYGHS GATE,Ilagata – Uelands Gate,25.04.2023,07.00-19.00,59.9299807,10.7475493
EVENTYRVEIEN,Hele,20.04.2023,07.00-19.00,59.9435239,10.7283752
EYSTEIN TORKILDSENS VEI,Hele,17.04.2023,07.00-19.00,59.8596075,10.8088196
FAGERBORGGATA,Pilestredet – Jacob Aalls Gate,17.04.2023,19.00-07.00,59.9311878,10.7267975
FAGERBORGGATA,Jacob Aalls Gt – Ullevålsveien,10.05.2023,07.00-19.00,59.9311878,10.7267975
FAGERHEIMGATA,Schleppegrells Gate – Chr Michelsens Gate,10.05.2023,19.00-07.00,59.9294108,10.7684218
FAGERHEIMGATA,Mailundveien – Chr Michelsens Gate,27.04.2023,19.00-07.00,59.9294108,10.7684218
FAGERHEIMGATA,Trapp V/Undergang,03.05.2023,07.00-19.00,59.9294108,10.7684218
FAGERHEIMGATA,Trapp V/Tennisbanen/Christian Michelsens Gate,03.05.2023,07.00-19.00,59.9294108,10.7684218
FAGERLIVEIEN,Hele,28.04.2023,07.00-19.00,59.9427015,10.7903136
FALBES GATE,Stensberggata – Sofies Gate,19.04.2023,07.00-19.00,59.9215159,10.734649
FALLANVEIEN,Hele,09.05.2023,07.00-19.00,59.9644219,10.7921956
FALSENS GATE,Seilduksgata – Schleppegrells Gate,12.05.2023,07.00-19.00,59.9271679,10.7629546
FASTINGS GATE,Fageborggata – Pilestredet,15.05.2023,07.00-19.00,59.9296748,10.7281719
FAUCHALDS GATE,Schultz` Gate – Industrigate,15.05.2023,07.00-19.00,59.9276638,10.7228615
FAUNVEIEN,Hele,12.05.2023,07.00-19.00,59.9542816,10.6937606
FAYES GATE,Geitemyrsveien – Kirkeveien,10.05.2023,07.00-19.00,59.9341514,10.7416254
FEARNLEYS GATE,Professor Dahls Gt – Majorstuveien,17.04.2023,07.00-19.00,59.9251939,10.7167782
FEDDERSENS GATE,Oscar Braatens Gate – Torshovgata,09.05.2023,07.00-19.00,59.9333365,10.7621901
FELTSPATVEIEN,Hele,21.04.2023,07.00-19.00,59.8717089,10.8209687
FELTSPAVEIEN,PARKERING,09.05.2023,19.00-07.00,59.8717089,10.8209687
FETSUNDGATA,Nittedalsgata – Sons Gate,05.05.2023,07.00-19.00,59.9142112,10.780098
FILERVEIEN,Hele,08.05.2023,07.00-19.00,59.9015041,10.8442903
FILIPSTAD P-PLASS,Munkedamsveien – Snuplass,09.05.2023,19.00-07.00,59.9421212,10.7776794
FILIPSTADVEIEN,Munkedamsvn – Ende Rundkj,09.05.2023,19.00-07.00,59.9092443,10.7143054
FINNHAUGVEIEN,Hele,25.04.2023,07.00-19.00,59.9445918,10.6402078
FINNMARKGATA,Hele,27.04.2023,19.00-07.00,59.9208539,10.7751841
FINNS VEI,Einars Vei – Grenseveien,02.05.2023,07.00-19.00,59.9236832,10.7886021
FIOLVEIEN,Hele,19.04.2023,07.00-19.00,59.8985885,10.7925677
FJELLGATA,Verksgata – Chr Michelsens Gt,12.05.2023,07.00-19.00,59.9256229,10.7706731
FJELLHUS ALLÉ,Hele,10.05.2023,07.00-19.00,59.9184481,10.8233852
FJELLSTIEN,Hele,11.05.2023,07.00-19.00,59.9617774,10.759826
FJELLSTUVEIEN,Hele,04.05.2023,07.00-19.00,59.9553822,10.9318142
FJØRTOFTS GATE,Stockfledts Gt – Gst. Jensens Gt/Griffdts. Gt,26.04.2023,07.00-19.00,59.9345703,10.7532367
FJØRTOFTS GATE,Trapp V/Griffenfeldts Gate,26.04.2023,07.00-19.00,59.9345703,10.7532367
FLAENGRENDA,Hele,27.04.2023,07.00-19.00,59.9551926,10.8714988
FLAENVEIEN,Hele,27.04.2023,07.00-19.00,59.9543086,10.8732134
FLATENGEN,Malerhaugveien – Fyrstikkalléen,07.05.2023,19.00-07.00,59.912859,10.7941431
FLESÅSVEIEN,Hele,08.05.2023,07.00-19.00,59.9607546,10.7306821
FLORABAKKEN,Hele,13.04.2023,07.00-19.00,59.8633313,10.7922898
FLYVEIEN,Hele,10.05.2023,07.00-19.00,59.9489132,10.6588719
FOLKE BERNADOTTES VEI,Hele,11.05.2023,07.00-19.00,59.9641781,10.7378395
FOLKVANGVEIEN,Linjeveien-Høybråtenveien,25.04.2023,07.00-19.00,59.9442124,10.9172641
FOLKVANGVEIEN,Høybråtenveien-Karihaugveien,26.04.2023,07.00-19.00,59.9442124,10.9172641
FORMERVEIEN,Hele,08.05.2023,07.00-19.00,59.9011134,10.8443559
FORSKNINGSVEIEN,Hele,18.04.2023,07.00-19.00,59.9432378,10.713917
FOSSDALEN,Sandakerveien,03.05.2023,07.00-19.00,59.9138688,10.7522454
FOSSUMBERGET,Hele,04.05.2023,07.00-19.00,59.960324,10.9320968
FOSSUMKROKEN,Hele,28.04.2023,07.00-19.00,59.9583535,10.9216336
FOSSUMVEIEN,Hele,20.04.2023,19.00-07.00,59.9629614,10.912239
FOUGNERS VEI,Hasleveien – Grenseveien,18.04.2023,19.00-07.00,59.9260161,10.7826769
FOUGSTADS GATE,Wdm. Thranes Gate – Evald Ryghs Gate,24.04.2023,07.00-19.00,59.9275799,10.746583
FRAMNESVEIEN,Munkedamsveien – Ende,13.04.2023,07.00-19.00,59.9117416,10.7106529
FRANTZEBRÅTVEIEN,fra rundkjøring og runden rundt,26.05.2023,07.00-19.00,59.9140517,10.6452509
FREDENSBORGVEIEN,Schandorffs Gate – Maridalsveien,11.05.2023,19.00-07.00,59.9194079,10.7479834
FREDERIK GLADS GATE,Birch Reichenwalds Gt – Brettevilles Gt,26.04.2023,07.00-19.00,59.9419911,10.7739893
FREDERIK HASLUNDS GATE,Toftes Gt – Falsens Gt,12.05.2023,07.00-19.00,59.926687,10.7622014
FREDERIK PETERSENS GATE,Hermann Foss Gt. – Fougstadgata,24.04.2023,07.00-19.00,59.9273003,10.7444851
FREDERIK STANGS GATE,"Drammensvn – Bygdøy Allé, Inkl Stikkvei Til Nr 12",27.04.2023,07.00-19.00,59.9156353,10.708225
FREDHEIMVEIEN,Hele,25.04.2023,07.00-19.00,59.945719,10.9213761
FREDRIK SELMERS VEI,Innspurten Til Snuplass,07.05.2023,19.00-07.00,59.9145758,10.8021684
FREDRIKKE QVAMS GATE,Hans Ross Gate – Bjerregaards Gate,24.04.2023,07.00-19.00,59.9244608,10.7460801
FREDRIKSBORGVEIEN,Hele,21.04.2023,07.00-19.00,59.9018999,10.6839026
FREDVEIEN,Hele,20.04.2023,07.00-19.00,59.8889188,10.7777349
FREIDIGVEIEN,Hele,25.04.2023,07.00-19.00,59.8656986,10.8068525
FRENNINGS VEI,Hele,28.04.2023,07.00-19.00,59.9493761,10.7971693
FRENNINGSFARET,Hele,28.04.2023,07.00-19.00,59.9479494,10.7979095
FRICHS GATE,Gørbitz Gate – Aug. Cappelens Gate,10.05.2023,07.00-19.00,59.933384,10.7280885
FRIDTJOF NANSENS VEI,Essendrops Gate – Sørkedalsveien,26.04.2023,19.00-07.00,59.9303174,10.7085195
FRIDTJOVS GATE,Orknøygata – Sveriges Gate,11.05.2023,07.00-19.00,59.9067134,10.7913472
FRIERVEIEN,Hele,19.04.2023,07.00-19.00,59.8888555,10.7714656
FRIGGFELTET TØRTELBERGET,Idrettsanlegg,20.04.2023,07.00-19.00,59.9331786,10.7123777
FRIGGS VEI,Hele,28.04.2023,07.00-19.00,59.9492342,10.8010358
FRIIS` GATE,Urtegata – Heimdalsgata,12.05.2023,07.00-19.00,59.9145284,10.7659916
FRIMANNS GATE,Langes Gt – Ullevålsveien,24.04.2023,07.00-19.00,59.9204472,10.7406618
FRITS KLÆRS VEI,Hele,17.04.2023,07.00-19.00,59.9138688,10.7522454
FRITZNERS GATE,Bygdøy Allé – Sophus Lies Gt,27.04.2023,07.00-19.00,59.9167976,10.7051475
FRODES VEI,Hele,18.04.2023,07.00-19.00,59.8806503,10.80168
FROGNER TERRASSE,Halvdan Svartes Gate – Ende,17.04.2023,07.00-19.00,59.922614,10.7027027
FROGNERPARKEN,P-Plass Tennisbanen Kirkeveien,17.04.2023,19.00-07.00,59.92645829999999,10.7034734
FROGNERPARKEN,P-Plass Hovedport Kirkeveien,17.04.2023,19.00-07.00,59.92645829999999,10.7034734
FROGNERPARKEN P-PLASS,Middelthuns Gt – Fridtjof Nansens Vei,17.04.2023,19.00-07.00,59.9421212,10.7776794
FROGNERSETERVEIEN,Dagaliveien- Ankerveien,19.04.2023,19.00-07.00,59.9605013,10.6839213
FROGNERSETERVEIEN,Stasjonsveien- Holmenveien,15.05.2023,07.00-19.00,59.9605013,10.6839213
FROGNERVEIEN,P-Plass Lindemans Gate – Frognerveien,18.04.2023,07.00-19.00,59.918823,10.7097861
FROGNERVEIEN,Trapp V/Lille Frogner Allé,27.04.2023,07.00-19.00,59.918823,10.7097861
FRYDENBERGVEIEN,Grenseveien – Haslevangen,24.04.2023,19.00-07.00,59.9268792,10.7867463
FRYDENLUNDGATA,Dalsbergstien – Ullevålsveien,25.04.2023,07.00-19.00,59.9241672,10.7375175
FRYDENS GATE,Trondheimsvn – Grenseveien,03.05.2023,07.00-19.00,59.9249975,10.7774969
FRYSJAVEIEN,Hele,04.05.2023,19.00-07.00,59.9641449,10.7707471
FRYSJAVEIEN,Fra Kjelsåsveien,09.05.2023,07.00-19.00,59.9641449,10.7707471
FRØENSALLEÈN,Hele,18.04.2023,07.00-19.00,59.9363397,10.7103524
FRØYAS GATE,Drammensvn – Ende Blindvei,13.04.2023,07.00-19.00,59.9172009,10.6950436
FRØYDIS` VEI,Hele,18.04.2023,07.00-19.00,59.8854013,10.8031312
FUGLEHAUGGATA,Kirkeveien – Tidemanns Gate,19.04.2023,07.00-19.00,59.9247266,10.711
FUGLELIVEIEN,Hele,05.05.2023,07.00-19.00,59.9026048,10.8269648
FURER NYMOS VEI,Hele,26.04.2023,07.00-19.00,59.9531843,10.8497468
FURUBRÅTVEIEN,Hele,13.04.2023,07.00-19.00,59.8707123,10.7829255
FURUKOLLVEIEN,Hele,09.05.2023,07.00-19.00,59.9644055,10.7934028
FURULUNDSVEIEN,Hele,19.05.2023,07.00-19.00,59.922769,10.6511516
FURULUNDTOPPEN,Hele,19.05.2023,07.00-19.00,59.9236205,10.6472268
FURUSET,G/S og plasser,26.04.2023,07.00-19.00,59.9420437,10.8899305
FURUSET ALLE,Hele,09.05.2023,07.00-19.00,59.9465606,10.8921378
FURUSETVEIEN,Hele,09.05.2023,07.00-19.00,59.9406835,10.8901748
FURUVEIEN,Hele,03.05.2023,07.00-19.00,59.9054363,10.8087771
FYRSTIKKALLÉEN,Svovelstikka – Ende V/Rundkjøring,07.05.2023,19.00-07.00,59.9135582,10.7950843
FYRSTIKKBAKKEN,Med gangvei og del av Låveveien,19.04.2023,07.00-19.00,59.910794,10.8268718
FÅDVEIEN,Hele,25.04.2023,07.00-19.00,59.9404811,10.637424
GABELS GATE,Frognerveien – Ende Etter/ Svoldergata,18.04.2023,07.00-19.00,59.9142995,10.7096777
GABLEINS VEI,Hele,21.04.2023,07.00-19.00,59.9425177,10.7334953
GAMLE BRENNAVEI,Hele,28.04.2023,07.00-19.00,59.8450148,10.8398963
GAMLE BYGDEVEI,Hele,27.04.2023,07.00-19.00,59.8543509,10.8265769
GAMLE ENEBAKKVEI,Hele,10.05.2023,07.00-19.00,59.8670074,10.8334138
GAMLE HOVSETERVEI,Fra Gammle Hovsetervei til Jeppes vei,10.05.2023,07.00-19.00,59.946863,10.6553314
GAMLE KJELSÅSVEI,Fra Saturnveien,26.04.2023,07.00-19.00,59.9565662,10.7825139
GAMLE KJELSÅSVEI,Hele,04.05.2023,07.00-19.00,59.9565662,10.7825139
GAMLE LEIRDALSVEI,Hele,14.05.2023,19.00-07.00,59.9369265,10.8738841
GAMLE STRØMSVEI,Hele,08.05.2023,07.00-19.00,59.9343295,10.9117799
GAMLE STRØMSVEI/MARIHOLTET,P-Plass,13.04.2023,19.00-07.00,59.9277202,10.9217246
GAMLE TRONDHEIMSVEIEN,"Rv.4. – Bekk, Bygrensen",28.04.2023,07.00-19.00,59.975563,10.9334657
GAMLEHAGEN,Hele,21.04.2023,07.00-19.00,59.8718991,10.8111189
GANGE-ROLVS GATE,Drammensvn – Ende Blindvei,13.04.2023,07.00-19.00,59.916363,10.6994503
GANGSTUVEIEN,Hele,21.04.2023,07.00-19.00,59.9525652,10.8784443
GANGVEI BJØLSEN,Bentsegata – Arendalsgata,27.04.2023,07.00-19.00,59.9422739,10.757616
GANGVEI BJØLSENGATA,Sarpsborgata – Maridalsveien,26.04.2023,07.00-19.00,59.9405778,10.7578703
GANGVEI DÆLENGA,Helgesens Gate – Snippen,12.05.2023,07.00-19.00,59.9466658,10.7257032
GANGVEI DÆLENGA,Tromsø Gata – Rodes Plass,12.05.2023,07.00-19.00,59.9466658,10.7257032
GANGVEI DÆLENGA,Fjellgata – Fagerheimsgata,20.04.2023,07.00-19.00,59.9466658,10.7257032
GANGVEI DÆLENGA,Ved Dælenga,03.05.2023,07.00-19.00,59.9466658,10.7257032
GANGVEI EINARS VEI,Snuplassen – Økernveien,03.05.2023,07.00-19.00,59.9226385,10.7839839
GANGVEI ENSJØ,Langs Ensjøveien,18.04.2023,19.00-07.00,59.9146153,10.7877581
GANGVEI ENSJØ,Malerhaugveien – Fyrstikkalléen,07.05.2023,19.00-07.00,59.9146153,10.7877581
GANGVEI ETTERSTAD,Bisk. Jens Nilssøns Gate Og Etterstadgt 36,11.05.2023,07.00-19.00,59.909719,10.7942381
GANGVEI ETTERSTAD,Bisk. Jens Nilssøns Gate Og Etterstadgt 16,11.05.2023,07.00-19.00,59.909719,10.7942381
GANGVEI ETTERSTAD,Bisk. Jens Nilssøns Gt Til Etterstadsletta,02.05.2023,19.00-07.00,59.909719,10.7942381
GANGVEI ETTERSTAD,Bisk. Jens Nilssøns Gt Til Arjt. Gellines Vei,02.05.2023,07.00-19.00,59.909719,10.7942381
GANGVEI ETTERSTAD,Ved Etterstadsletta,02.05.2023,07.00-19.00,59.909719,10.7942381
GANGVEI ETTERSTAD,Etterstadgt (20366) – Bryn Bru (Vegdir),02.05.2023,07.00-19.00,59.909719,10.7942381
GANGVEI ETTERSTAD,Etterstadsletta – Helsfyr Bussterminal,07.05.2023,19.00-07.00,59.909719,10.7942381
GANGVEI FAGERHEIMGATA,Rosenhoffgata – Christian Michelsens Gate,03.05.2023,07.00-19.00,59.9294108,10.7684218
GANGVEI FROGNER,Snuplass Olav Kyrres Gate – E-18,13.04.2023,07.00-19.00,59.9466658,10.7257032
GANGVEI FROGNER SYD,Lille Frogner Allé – Lille Frogner Allé,27.04.2023,07.00-19.00,59.9466658,10.7257032
GANGVEI GRØNLAND,Annette Thommesens Pl – Stasjonsallmenningen,03.05.2023,19.00-07.00,59.9466658,10.7257032
GANGVEI HASLE,Utenfor Tennishallen Ved Haslevangen,04.05.2023,19.00-07.00,59.92484940000001,10.782654
GANGVEI HASLE,Fougners Vei – Hasleveien,02.05.2023,07.00-19.00,59.92484940000001,10.782654
GANGVEI JORDAL,Gangveier Jordal,03.05.2023,07.00-19.00,59.9105133,10.7839723
GANGVEI KAMPEN,Telemarksvingen – Ensjøveien,15.05.2023,07.00-19.00,59.91298289999999,10.7793965
GANGVEI KVÆRNER,Lodalen – Konows Gate,11.05.2023,19.00-07.00,59.9466658,10.7257032
GANGVEI KVÆRNER,Dyvekes Vei – Konows Gate,11.05.2023,19.00-07.00,59.9466658,10.7257032
GANGVEI LILLEBORG,Fagerheimsgata – Ole Bulls Gate,25.04.2023,19.00-07.00,59.9466658,10.7257032
GANGVEI LILLEBORG,Biermanns Gate – Sagveien,04.05.2023,19.00-07.00,59.9466658,10.7257032
GANGVEI MAILUNDVEIEN,Mailundveien – Trondheimsveien,03.05.2023,07.00-19.00,59.9317541,10.7757556
GANGVEI MAJORSTUA,Sørkedalsveien – Middelthuns Gate (Snuplass),17.04.2023,19.00-07.00,59.9466658,10.7257032
GANGVEI MAJORSTUA,Tørteberget,20.04.2023,07.00-19.00,59.9466658,10.7257032
GANGVEI MOLDEGATA,Moldegata – Badebakken,09.05.2023,07.00-19.00,59.9466658,10.7257032
GANGVEI ROSENHOFF,Jørgen Løvlands Gate – Fagerheimsgata,25.04.2023,19.00-07.00,59.9466658,10.7257032
GANGVEI SANDAKER,Nordkappgata – Åsengata,26.04.2023,07.00-19.00,59.9446093,10.7710347
GANGVEI SANDAKER,Åsengata – Sandakerveien,27.04.2023,07.00-19.00,59.9446093,10.7710347
GANGVEI SENTRUM NORD,Westbye Egebergsgt – Maridalsveien,20.04.2023,07.00-19.00,59.91271889999999,10.7318202
GANGVEI SINSEN,Båhusveien – Sinsenveien,02.05.2023,07.00-19.00,59.9318394,10.7882808
GANGVEI SKARPSNO,Torstrup Terrasse – Thomas Hefteys Gate,17.04.2023,07.00-19.00,59.914168,10.7026567
GANGVEI SOGNSVEIEN,Songsveien – Blindernveien,25.04.2023,07.00-19.00,59.950432,10.7298727
GANGVEI STORO,Gunnar Schelderups Vei – Tamburveien,23.04.2023,19.00-07.00,59.9465762,10.7790698
GANGVEI TORSHOV,Ole Bulls Gate – Fagerheimsgata,25.04.2023,19.00-07.00,59.9338875,10.7638531
GANGVEI TORSHOV,Fagerheimsgata – Vossegata,09.05.2023,07.00-19.00,59.9338875,10.7638531
GANGVEI TORSHOV,Hans Nielsen Hauges Gt – Tverrbakken,03.05.2023,07.00-19.00,59.9338875,10.7638531
GANGVEI TORSHOV,Tverrbakken – Trondheimsveien,03.05.2023,07.00-19.00,59.9338875,10.7638531
GANGVEI TØYEN,Jens Bjelkes Gate – Kolstadgata,12.05.2023,07.00-19.00,59.9152023,10.7660207
GANGVEI TØYEN,Borggata – Smedgata,15.05.2023,07.00-19.00,59.9152023,10.7660207
GANGVEI VALLE-HOVIN,Snuplass Velodromen – Gangvei Ring 3,20.04.2023,07.00-19.00,59.9182621,10.8045814
GANGVEI VALLE-HOVIN,Ved Valle Hovin Mot Vallefaret,02.05.2023,19.00-07.00,59.9182621,10.8045814
GANGVEI VALLE-HOVIN,Innspurten – Vallefaret,02.05.2023,07.00-19.00,59.9182621,10.8045814
GANGVEI VALLE-HOVIN,Innspurten Til Ende,07.05.2023,19.00-07.00,59.9182621,10.8045814
GANGVEI VALLE-HOVIN,Ensjøveien – Undergang Ring 3,03.05.2023,07.00-19.00,59.9182621,10.8045814
GANGVEI VALLE-HOVIN,Gangveier Valle Hovin,03.05.2023,07.00-19.00,59.9182621,10.8045814
GANGVEI VALLE-HOVIN,Innspurten – St Jørgens Vei,03.05.2023,07.00-19.00,59.9182621,10.8045814
GANGVEI VED DYNEKILGATA,Mailundveien – Dynekilgata,03.05.2023,07.00-19.00,59.9306408,10.7756753
GANGVEI VÅLERENGA,Hedmarksgata – Elverumgata,11.05.2023,07.00-19.00,59.9466658,10.7257032
GANGVEIER,Ved Voldsløkka,03.05.2023,07.00-19.00,59.9466658,10.7257032
GARDEVEIEN,Suhms Gate – Slemdalsveien,19.04.2023,07.00-19.00,59.9319016,10.7170969
GARTNERVEIEN,Hele,03.05.2023,07.00-19.00,59.9023404,10.8091005
GARVER YTTEBORGS VEI,Hele,04.05.2023,19.00-07.00,59.9527757,10.9086957
GARVER YTTEBORGS VEI,Jernkroken-Ole Brumsvei,04.05.2023,19.00-07.00,59.9527757,10.9086957
GAUPEFARET,Hele,12.05.2023,07.00-19.00,59.9525414,10.6796389
GAUSTADALLEÈN,Hele,16.04.2023,19.00-07.00,59.9440241,10.7165543
GAUSTADVEIEN,Til Nordbergveien,13.04.2023,19.00-07.00,59.9551289,10.7200323
GEITABRU,Saxegaardsgt – Over Brua,03.05.2023,19.00-07.00,59.9041275,10.7669211
GEITMYRSVEIEN,Colletts Gate – Kirkevn/Ring 2,10.05.2023,19.00-07.00,59.9300224,10.7434606
GEITMYRSVEIEN,Ullevålsveien – Colletts Gate,24.04.2023,07.00-19.00,59.9300224,10.7434606
GENERAL BIRCHS GATE,Ullevålsveien – Geitemyrsvn,11.05.2023,19.00-07.00,59.9317228,10.738713
GENERAL KROGSVEI,Noreveien - T-Bane,24.04.2023,07.00-19.00,59.9345481,10.6656004
GENERAL KROGSVEI,Hele,25.04.2023,07.00-19.00,59.9345481,10.6656004
GENERAL RUGES VEI,Hele,13.04.2023,19.00-07.00,59.876953,10.8407984
GENERALLUNDEN,Hele,24.04.2023,07.00-19.00,59.9257919,10.6458985
GEOLOGSVINGEN,Hele,24.04.2023,07.00-19.00,59.9302328,10.6577789
GIMLE TERRASSE,Sophus Lies Gt – Ende E/Th Heftyes Gt,27.04.2023,07.00-19.00,59.9171058,10.7054587
GIMLEVEIEN,Bygdøy Allé – Nordraaks Gate,13.04.2023,07.00-19.00,59.9194079,10.7060641
GINA KROGS VEI,Hele,24.04.2023,07.00-19.00,59.8773494,10.8148671
GISLES VEI,Hele,18.04.2023,07.00-19.00,59.8817609,10.807661
GJENNOMFARET,Hele,05.05.2023,07.00-19.00,59.9515961,10.7457684
GJENVEIEN,Hele,18.04.2023,07.00-19.00,59.9372167,10.7142942
GJERDESMUTTEN,Hele,03.05.2023,07.00-19.00,59.9673461,10.864529
GJERDRUMS VEI,Sandakerveien-Rolf wickstrømsvei,26.04.2023,07.00-19.00,59.9544115,10.7645519
GJØAVEIEN,Hele,12.05.2023,07.00-19.00,59.9392154,10.6849562
GJØKBAKKEN,Hele,22.05.2023,07.00-19.00,59.9686086,10.6561903
GJØRSTADS GATE,Bogstadsveien – Majorstuveien,18.04.2023,07.00-19.00,59.9265003,10.7184124
GJØVIKGATA,Bentsbrugata – Maridalsveien,09.05.2023,07.00-19.00,59.9394165,10.7606496
GLADENGVEIEN,Grenseveien – Ensjøveien,18.04.2023,19.00-07.00,59.9169681,10.7913518
GLADSVEI,Hele,26.04.2023,07.00-19.00,59.9521829,10.7829035
GLIMMERSVINGEN,Hele,25.04.2023,07.00-19.00,59.870573,10.8161519
GLIMMERVEIEN,Hele,25.04.2023,07.00-19.00,59.8699945,10.8178823
GLÜCKSTADS GATE,Stensberggata – Dalsbergstien,10.05.2023,07.00-19.00,59.9219947,10.7379098
GML MARIDALSVEIEN,Hele,11.05.2023,19.00-07.00,60.0099992,10.7667382
GODALS VEI,Hele,03.05.2023,07.00-19.00,59.9463348,10.7552199
GODLIA PARKSTI,Hele,05.05.2023,07.00-19.00,59.9084127,10.8402162
GODLIAVEIEN,Hele,05.05.2023,07.00-19.00,59.9061661,10.8382534
GOLFSTUBBEN,Hele,27.04.2023,07.00-19.00,59.9603524,10.6329663
GRAAHBAKKEN,Fredriksborgveien – Ende,08.05.2023,07.00-19.00,59.900735,10.6786765
GRANEBAKKEN,Hele,27.04.2023,07.00-19.00,59.856485,10.8273853
GRANHEKKVEIEN,Hele,05.05.2023,07.00-19.00,59.900466,10.8258993
GRANITTVEIEN,Hele,24.04.2023,07.00-19.00,59.8650956,10.8192707
GRANKOLLVEIEN,Hele,20.04.2023,07.00-19.00,59.9120929,10.8608517
GRANKVISTEN,Hele,18.04.2023,07.00-19.00,59.8830899,10.7913849
GRANLIVEIEN,Hele,26.04.2023,07.00-19.00,59.9424682,10.9278652
GRANSDALEN,Hele,18.04.2023,07.00-19.00,59.9477287,10.8972395
GRANSTANGEN,Hele,18.04.2023,07.00-19.00,59.9423798,10.9017363
GRANSTUVEIEN,Hele,18.04.2023,07.00-19.00,59.8822727,10.7994275
GRANVEIEN,Hele,18.04.2023,07.00-19.00,59.8834764,10.7919595
GRASVEIEN,Hele,28.04.2023,07.00-19.00,59.8918246,10.8135531
GRAVDALSVEIEN,Hele,27.04.2023,07.00-19.00,59.9558504,10.6332536
GREFSEN ALLÈ,Fra Grefsen veien til Doktor Smiths vei,26.04.2023,07.00-19.00,59.9483583,10.787655
GREFSENKOLLVEIEN,Lachmanns vei- Kjelsåsveien,25.04.2023,19.00-07.00,59.9570523,10.7982585
GREFSENKOLLVEIEN,Lachmanns vei- Snuplass,03.05.2023,19.00-07.00,59.9570523,10.7982585
GREFSENVEIEN,Kjelsåsveien til storokrysset,03.05.2023,19.00-07.00,59.9521315,10.7853471
GREFSENVEIEN,Hans Nielsen Hauges Gt – Storo Bru,23.04.2023,19.00-07.00,59.9521315,10.7853471
GREGERS GRAMS VEI,Inn til y kryss.,17.04.2023,07.00-19.00,59.9349687,10.6471931
GRENSEVEIEN,Trondheimsveien – Hovinveien,24.04.2023,19.00-07.00,59.9200115,10.7938582
GRENSEVEIEN,Hovinveien – Strømsvn O/Brua,07.05.2023,19.00-07.00,59.9200115,10.7938582
GRESSBANEN,P-plass,17.04.2023,19.00-07.00,59.9507084,10.6767022
GREVEVEIEN,Hele,11.05.2023,19.00-07.00,60.0067927,10.7992361
GREVLINGVEIEN,Hele,18.04.2023,07.00-19.00,59.946059,10.8509127
GRIFFENFELDTS GATE,Marcus Thranes Gate – Kirkeveien,20.04.2023,07.00-19.00,59.9343078,10.7502153
GRIMELUNDSHAUGEN,Hele,12.05.2023,07.00-19.00,59.9425025,10.6934012
GRIMELUNDVEIEN,Hele,15.05.2023,07.00-19.00,59.9464447,10.6927336
GRIMSTADGATA,Kongsvingergata – Dannevigsveien,09.05.2023,07.00-19.00,59.9384831,10.7555113
GRINDA,Hele,11.05.2023,07.00-19.00,59.965286,10.7518743
GRINDBAKKEN,Hele,23.05.2023,07.00-19.00,59.969946,10.6461045
GRINIVEIEN,Røahagan - Bærumsgrensa,10.05.2023,19.00-07.00,59.9519985,10.6306661
GRORD FLERBRUKSHALL,P-plass,23.04.2023,19.00-07.00,59.9596713,10.8826814
GRORUDBAKKEN,Hele,25.04.2023,07.00-19.00,59.9551896,10.8800652
GRORUDVEIEN,Gransdalen – Micheletvei,25.04.2023,07.00-19.00,59.9528655,10.8861007
GRORUDVEIEN,Bergensveien-Maria Dehlies Vei,08.05.2023,19.00-07.00,59.9528655,10.8861007
GRUBBEGATA,Hammersborg Torg – Fredensborgvn,09.05.2023,19.00-07.00,59.9151473,10.7464345
GRUBBEGATA,Trapp/Gangvei Mot Møllergata,11.05.2023,19.00-07.00,59.9151473,10.7464345
GRUEGATA,Sigurds Gate – Ende,15.05.2023,07.00-19.00,59.9129482,10.77454
GRUSVEIEN,Hele,24.04.2023,07.00-19.00,59.8649561,10.8213248
GRUVELIA,Hele,03.05.2023,07.00-19.00,59.963913,10.8660613
GRÅBRØDVEIEN,Hele,25.05.2023,07.00-19.00,59.929068,10.6674958
GRÅGÅSVEIEN,Hele,09.05.2023,07.00-19.00,59.8818505,10.8277876
GRÅKAMVEIEN,Hele,15.05.2023,07.00-19.00,59.9572151,10.7019752
GRÅSTEINVEIEN,Hele,24.04.2023,07.00-19.00,59.8688253,10.8169918
GRØNLIBAKKEN,Hele,09.05.2023,07.00-19.00,59.8985327,10.8347514
GRØNNEGATA,Hegdehaugsveien – Pilestredet,19.04.2023,07.00-19.00,59.9221477,10.7295387
GRØNVOLL ALLÉ,Malerhaugvn – Renseveien,07.05.2023,19.00-07.00,59.9160898,10.7979738
GRÜNERHAGEN,Grüners Gate – Fossveien,03.05.2023,07.00-19.00,59.9214753,10.7549671
GRÜNERSTUBBEN,Markveien – Stenstrups Gt,12.05.2023,07.00-19.00,59.9263479,10.7564855
GULDBEGS VEI,Hele,19.04.2023,07.00-19.00,59.9320826,10.6889678
GULDBERGLIA,Hele,25.05.2023,07.00-19.00,59.9303771,10.6838229
GULLERÅSVEIEN,Hele,15.05.2023,07.00-19.00,59.95626,10.6970853
GULLERÅSVEIEN,til Gråkamveien,16.05.2023,07.00-19.00,59.95626,10.6970853
GULLKROKKEN,Hele,25.05.2023,07.00-19.00,59.9138688,10.7522454
GUNHILDS GATE,Borggata – Magnus Gate,15.05.2023,07.00-19.00,59.9120029,10.7723179
GUNNAR JOHNSONS VEI,Hele,08.05.2023,07.00-19.00,59.9567541,10.7489985
GUNNAR SCHJELDERUPS VEI,Vitaminveien – Snuplass,23.04.2023,19.00-07.00,59.9487979,10.7733429
GUNNULVS VEI,Hele,20.04.2023,07.00-19.00,59.9193357,10.8457768
GURISTUVEIEN,Hele,28.04.2023,07.00-19.00,59.8863996,10.8427115
GUSTAV BLOMS GATE,Parkveien – Ende,14.04.2023,07.00-19.00,59.9146239,10.7220933
GUSTAV HEIBERGS VEI,Hele,21.04.2023,07.00-19.00,59.9419345,10.7320975
GUSTAV JENSENS GATE,Maridalsveien – Stockfleths Gate,04.05.2023,07.00-19.00,59.9350364,10.7540296
GUSTAV VIGELANDS VEI,Hele,24.05.2023,07.00-19.00,59.924109,10.6893519
GUSTAVS GATE,Josefines Gate – Oscars Gate,19.04.2023,07.00-19.00,59.9235141,10.7286853
GUVERNØRENS VEI,Hele,24.04.2023,07.00-19.00,59.9223785,10.6350358
GYDAS VEI,Suhms Gate – Trudvangvn,20.04.2023,07.00-19.00,59.9331883,10.7167762
GYLDENLØVES GATE,Niels Juels Gate – Løvenskiolds Gate,13.04.2023,19.00-07.00,59.9213604,10.7126519
GYLDENLØVES GATE,Kirkeveien – Løvenskiolds Gate,19.04.2023,07.00-19.00,59.9213604,10.7126519
GÅBLEINS VEI,Hele,20.04.2023,07.00-19.00,59.9425177,10.7334953
GÅRDSVEIEN,Hele,19.04.2023,07.00-19.00,59.9505911,10.8730174
GØRBITZ` GATE,Kirkeveien – Jacob Aalls Gate,10.05.2023,07.00-19.00,59.9328821,10.7272638
HAAKON AUNES VEI,Hele,26.04.2023,07.00-19.00,59.9498522,10.7871372
HAAKON DEN GODES VEI,Hele,18.04.2023,07.00-19.00,59.9417567,10.7060612
HAAKON TVETERS VEI,VEI 3275,04.05.2023,07.00-19.00,59.8967556,10.8382746
HAAKON TVETERS VEI,Hele,04.05.2023,07.00-19.00,59.8967556,10.8382746
HAARKLOUS PLASS,Hele,04.05.2023,07.00-19.00,59.9369849,10.7755123
HAAVARD MARTINSENS VEI,Hele,23.04.2023,19.00-07.00,59.9602288,10.9088969
HAFRSFJORDGATA,Blindv. Nedenfor Dr. Veien – Solheimsgata,13.04.2023,07.00-19.00,59.9195065,10.6986242
HAFSLUNDVEIEN,Hele,18.04.2023,07.00-19.00,59.9379814,10.7080318
HAGALØKKA,Hele,27.04.2023,07.00-19.00,59.9633971,10.8848628
HAGAN TERRASSE,Hele,25.04.2023,07.00-19.00,59.9398156,10.6744031
HAGAPYNTEN,Hele,19.04.2023,07.00-19.00,59.9215252,10.8518034
HAGAVEIEN,Hele,08.05.2023,07.00-19.00,59.9500192,10.9334634
HAGEGATA,Trapp V/Nannestadgata,12.05.2023,07.00-19.00,59.913931,10.7755342
HAGEGATA,Trapp V/Brinken,15.05.2023,07.00-19.00,59.913931,10.7755342
HAGEGATA,Tøyengata – Kjølberggata,18.04.2023,19.00-07.00,59.913931,10.7755342
HAGELUNDVEIEN,Hele,27.04.2023,07.00-19.00,59.9637474,10.8820934
HAGTORNVEIEN,Hele,05.05.2023,07.00-19.00,59.9509919,10.7299225
HALLAGERBAKKEN,Hele,25.04.2023,07.00-19.00,59.8408111,10.7938467
HALLINGS GATE,Stensberggata – Dalsbergstien,25.04.2023,07.00-19.00,59.9222774,10.7389601
HALLINGS GATE,Trapp V/ Nr 3a,25.04.2023,07.00-19.00,59.9222774,10.7389601
HALLVARD BERGVES VEI,Hele,03.05.2023,07.00-19.00,59.9547822,10.8820556
HALVDAN SVARTES GATE,Hele,19.04.2023,19.00-07.00,59.9221599,10.6966038
HALVOR SCHOUS GATE,Hammergata – Trapp V/Arendalsgata,09.05.2023,07.00-19.00,59.9381353,10.7586586
HALVOR TORGERSENS VEI,Hele,16.05.2023,07.00-19.00,59.9538421,10.7065987
HAMBORGVEIEN,Hele,05.05.2023,07.00-19.00,59.9598291,10.7372636
HAMBORGVEIEN,Hele,08.05.2023,07.00-19.00,59.9598291,10.7372636
HAMMERFESTGATA,Langgata – Trondheimsveien,12.05.2023,07.00-19.00,59.9251957,10.7732734
HAMMERGATA,Maridalsveien – Bentsebrugata,09.05.2023,07.00-19.00,59.9383902,10.7587111
HAMMERSBORG TORG,Grubbegata – Møllergata,03.05.2023,19.00-07.00,59.9167997,10.7484374
HAMMERSTADS GATE,Industrigata – Gydas Vei,19.04.2023,07.00-19.00,59.930498,10.7200372
HANS AANRUDS VEI,Hele,27.04.2023,07.00-19.00,59.952438,10.8498892
HANS MØLLER GASMANNS VEI,Hele,11.05.2023,07.00-19.00,59.9380823,10.8343153
HANS NIELSEN HAUGES GATE,Treschows Gate – Grefsenveien,23.04.2023,19.00-07.00,59.9390815,10.7764325
HANS NIELSEN HAUGES GATE,Sandaker P-Plass V/Treschows Gate,23.04.2023,19.00-07.00,59.9390815,10.7764325
HANS NIELSEN HAUGES GATE,Grefsenveien – Storoveien/Ring 3,26.04.2023,19.00-07.00,59.9390815,10.7764325
HANS ROSS` GATE,Bjerregaards Gt – Frederikke Qvams Gate,25.04.2023,07.00-19.00,59.92472,10.7455505
HANSEMYRVEIEN,Hele,11.05.2023,07.00-19.00,59.9629943,10.760849
HANSTEENS GATE,Henrik Ibsens Gate – Lassons Gate,13.04.2023,07.00-19.00,59.9136092,10.7225249
HARALD HALVORSENS VEI,Hele,10.05.2023,07.00-19.00,59.917132,10.8256827
HARALD HARDRÅDES PLASS,Trapp V/Undergang Mot Arupsgate,08.05.2023,19.00-07.00,59.907658,10.773032
HARALD HÅRFAGRES GATE,Trapp V/Sporveiesmuséet,20.04.2023,07.00-19.00,59.9312803,10.718399
HARALD HÅRFAGRES GATE,Suhms Gate – Valkyriegata,20.04.2023,07.00-19.00,59.9312803,10.718399
HARALD LØVENSKIOLDS VEI,Hele,25.04.2023,07.00-19.00,59.9495665,10.6364182
HARALD SOHLBERGS VEI,Hele,08.05.2023,07.00-19.00,59.9357413,10.9232103
HARALDRUDVEIEN,Hele,24.04.2023,19.00-07.00,59.9278422,10.8242581
HARALDS VEI,Hovinveien – Ende,03.05.2023,07.00-19.00,59.9215596,10.7890176
HARALDSHEIMVEIEN,Hele,28.04.2023,07.00-19.00,59.9423492,10.7887412
HARALØKKA,Hele,28.04.2023,07.00-19.00,59.8824883,10.8532201
HARBITZALLEEN,Hele,25.05.2023,07.00-19.00,59.9245229,10.670606
HARESTIEN,Hele,23.05.2023,07.00-19.00,59.9645494,10.6578918
HAREVEIEN,Hele,04.05.2023,07.00-19.00,59.9591178,10.7929238
HARTMANNS VEI,Hele,24.04.2023,07.00-19.00,59.9243025,10.6350144
HARÅSVEIEN,Hele,26.05.2023,07.00-19.00,59.9184757,10.6375138
HASLEFETBAKKEN,Hele,09.05.2023,07.00-19.00,59.8829365,10.8222578
HASLEVANGEN,Hele,04.05.2023,19.00-07.00,59.9254407,10.7984393
HASLEVANGEN,Grenseveien – Grensveien 60/Tennishallen,03.05.2023,07.00-19.00,59.9254407,10.7984393
HASLEVEIEN,Trondheimsveien – Grenseveien,18.04.2023,19.00-07.00,59.9281152,10.7830872
HASLEVOLLEN,Hasleveien – Haslevangen,03.05.2023,07.00-19.00,59.9254515,10.7911925
HASSELHAUGVEIEN,Hele,20.04.2023,07.00-19.00,59.9392061,10.7273766
HAUCHS GATE,Maridalsveien – Darres Gate,10.05.2023,19.00-07.00,59.9270079,10.7518301
HAUGENSTUA,G/S og plasser,25.04.2023,07.00-19.00,59.9527041,10.9096273
HAUGENSTUVEIEN,fra linjeveien og til snuplass,25.04.2023,07.00-19.00,59.9497469,10.9055251
HAUGERUDBAKKEN,Hele,19.04.2023,07.00-19.00,59.9229248,10.8532684
HAUGERUDHAGAN,Hele,19.04.2023,07.00-19.00,59.9209878,10.8501577
HAUGERUDSENTERET,Hele,04.05.2023,07.00-19.00,59.9226154,10.8571299
HAUGERUDVEIEN,Tvetenveien - Snuplass,04.05.2023,07.00-19.00,59.9177337,10.8565178
HAUGES VEI,Hele,03.05.2023,07.00-19.00,59.9480623,10.7555606
HAUGMANNSVEIEN,Hele,15.05.2023,07.00-19.00,59.9401626,10.8026936
HAUKELIBAKKEN,Hele,15.05.2023,07.00-19.00,59.9483953,10.692109
HAUKETO,PARKERING,10.05.2023,19.00-07.00,59.843982,10.8093
HAUKETOSVINGEN,Hele,26.04.2023,07.00-19.00,59.8417157,10.8065834
HAUKETOVEIEN,Hele,26.04.2023,07.00-19.00,59.8442755,10.805682
HAUSMANNS GATE,Møllergata – Nylandsveien,10.05.2023,19.00-07.00,59.9171389,10.7553579
HAVNA ALLÈ,Hele,18.04.2023,07.00-19.00,59.9394446,10.7142358
HAVNABAKKEN,Hele,08.05.2023,07.00-19.00,59.9591143,10.7523806
HAVNEHAGAN,Havnebakken- Nordbergveien,08.05.2023,07.00-19.00,59.9551191,10.7507862
HAVREVEIEN,Hele,28.04.2023,07.00-19.00,59.8939969,10.8096808
HAXTHAUSENS GATE,Frognervn – Gyldenløves Gate,27.04.2023,07.00-19.00,59.9179482,10.7142922
HEDMARKSGATA,Strømsveien – Bom (Gatetun),11.05.2023,07.00-19.00,59.9112293,10.7865432
HEDMARKSGATA,Normannsgata – Bom (Gatetun),12.05.2023,07.00-19.00,59.9112293,10.7865432
HEGDEHAUGSVEIEN,Parkveien – Bogstadveien,19.04.2023,19.00-07.00,59.9212416,10.7274625
HEGDEHAUGSVEIEN,Stensberggata – Parkveien,19.04.2023,07.00-19.00,59.9212416,10.7274625
HEGELIBAKKEN,Hele,19.04.2023,07.00-19.00,59.9387741,10.6919793
HEGERMANNS GATE,Bentsebrugata – Joh. Svendsens Gate,04.05.2023,19.00-07.00,59.9347767,10.7659837
HEGGELIVEIEN,Monolitveien-Sørkedalsveien,19.04.2023,07.00-19.00,59.9332382,10.6883947
HEGGELIVEIEN,til Monolitveien,25.05.2023,07.00-19.00,59.9332382,10.6883947
HEIASVINGEN,Hele,20.04.2023,07.00-19.00,59.8846492,10.7786807
HEIERSTUVEIEN,Hele,08.05.2023,07.00-19.00,59.956647,10.7590816
HEIMDALSGATA,Trondheimsveien – Tøyengata,05.05.2023,07.00-19.00,59.916272,10.7645119
HEKKVEIEN,Grenseveien – Ende,03.05.2023,07.00-19.00,59.9269813,10.7801893
HELGA VANEKS VEI,Hele,27.04.2023,07.00-19.00,59.8482809,10.8321508
HELGESENS GATE,Toftes Gate – Sars Gate,09.05.2023,19.00-07.00,59.9228248,10.768164
HELGESENS GATE,Sarsgata – Blindvei/Tøyenparken,03.05.2023,07.00-19.00,59.9228248,10.768164
HELLERUD GÅRDSVEI,Hele,21.04.2023,07.00-19.00,59.9127322,10.8466016
HELLERUD TERRASSE,Hele,20.04.2023,07.00-19.00,59.9127244,10.8565281
HELLERUDFARET,Hele,02.05.2023,07.00-19.00,59.9057931,10.8508908
HELLERUDSVINGEN,Hele,02.05.2023,07.00-19.00,59.9019002,10.8526492
HELLERUDVEIEN,Haugerudveien – Trasoppveien,20.04.2023,07.00-19.00,59.9051326,10.851154
HELLEVEIEN,Hele,02.05.2023,07.00-19.00,59.9419778,10.6829943
HELLINGA,Hele,21.04.2023,07.00-19.00,59.8703652,10.8100727
HELSFYR,Trapp V/Gv Fra Grenseveien,07.05.2023,19.00-07.00,59.9110653,10.8078855
HELSFYR,Trapp V/Undergang Til Etterstadsletta,07.05.2023,19.00-07.00,59.9110653,10.8078855
HELSFYR BUSSTERMINAL,Kun Den Største Plassen M/Fortau,07.05.2023,19.00-07.00,59.9110653,10.8078855
HEMINGVEIEN,Fra Stasjonsveien,02.05.2023,07.00-19.00,59.9517151,10.6706878
HEMINGVEIEN,Til stasjonsveien,10.05.2023,07.00-19.00,59.9517151,10.6706878
HEMMESTVEITBAKKEN,Hele,25.04.2023,07.00-19.00,59.9373095,10.6628652
HENRICHSENS GATE,Colletts Gate – Frydenlundsgata,10.05.2023,07.00-19.00,59.9252054,10.7373183
HENRIK IBSENS GATE,Trapp V/Sommerrogata,13.04.2023,19.00-07.00,59.9153005,10.7248578
HENRIK KLAUSENS GATE,Vidars Gate – Thereses Gate,10.05.2023,07.00-19.00,59.9301526,10.7334786
HENRIK SØRENSENS VEI,Hele,08.05.2023,07.00-19.00,59.9372011,10.9247245
HENRIKS VEI,Hele,10.05.2023,07.00-19.00,59.9486625,10.6552477
HERMAN FOSS` GATE,Brandts Gate – Ilagata,25.04.2023,07.00-19.00,59.9278643,10.7453801
HERREGÅRDSVEIEN,Hele,25.04.2023,07.00-19.00,59.8451303,10.7855889
HERSLEBS GATE,Lakkegata – Tøyengata Inkl. Til Jens Bjelkes Gt,12.05.2023,19.00-07.00,59.9173109,10.7649648
HERSLEBS GATE,(1 -14) Ratkes Gate – Lakkegata,09.05.2023,19.00-07.00,59.9173109,10.7649648
HERTUG SKULES GATE,Sigurds Gate – Biskop Nicolas Gate,15.05.2023,07.00-19.00,59.9125528,10.7756783
HERTZBERGS GATE,Suhms Gate – Jacob Aalls Gate,10.05.2023,07.00-19.00,59.9309479,10.7256198
HESJEVEIEN,Hele,25.04.2023,07.00-19.00,59.9492876,10.907236
HESTEHAGEN,Hele,26.04.2023,07.00-19.00,59.9549834,10.8537571
HESTESKOEN,Hele,04.05.2023,07.00-19.00,59.9619223,10.7772727
HEYERDAHLS VEI,Hele,16.05.2023,07.00-19.00,59.9505887,10.6998767
HJALMAR JORDANS VEI,Bygdøy Kapellvei – Ende,08.05.2023,07.00-19.00,59.9038617,10.6827061
HJALTLANDSGATA,Danmarks Gate – Islands Gate,11.05.2023,07.00-19.00,59.9070942,10.7892431
HJELMS GATE,Ulfstens Gate – Bogstadveien,18.04.2023,07.00-19.00,59.924888,10.7224074
HJEMLIVEIEN,Hele,03.05.2023,07.00-19.00,59.904383,10.8160745
HJORTEVEIEN,Hele,21.04.2023,07.00-19.00,59.9424227,10.7370084
HJØRUNGAVÅGGATA,Drammensveien – Tostrups Gate,13.04.2023,07.00-19.00,59.9174378,10.7007587
HJØRUNGVEIEN,Hele,20.04.2023,07.00-19.00,59.9363744,10.6940203
HOCKEYVEIEN,Hele,24.04.2023,07.00-19.00,59.9318069,10.8732431
HOFFSJEF LØVENSKIOLDS VEI,Fra Ullern gårdsvei til Ullern Alle,17.04.2023,07.00-19.00,59.9302997,10.6457473
HOFFSJEF LØVENSKIOLDS VEI,Hele,17.04.2023,07.00-19.00,59.9302997,10.6457473
HOFFSVEIEN,Monolitveien-Sørkedalsveien,19.04.2023,07.00-19.00,59.9298608,10.6761924
HOFFSVEIEN,se kart,19.04.2023,07.00-19.00,59.9298608,10.6761924
HOLBERGS GATE,St Olavs Gate – Pilestredet,09.05.2023,19.00-07.00,59.9192019,10.7344809
HOLBERGS GATE,Pilestredet – Stensberggata,24.04.2023,07.00-19.00,59.9192019,10.7344809
HOLBERGS PLASS,Hele,09.05.2023,19.00-07.00,59.9193379,10.7342297
HOLGERSLYSTVEIEN,Hele,19.05.2023,07.00-19.00,59.9226651,10.6542541
HOLLENDERGATA,Schweigaards Gate – Grønlandsleiret,12.05.2023,07.00-19.00,59.9100197,10.7664293
HOLMBOES GATE,Bogstadveien – Majorstuveien,17.04.2023,07.00-19.00,59.9251358,10.720921
HOLMENDAMMEN TERRASSE,Hele,12.05.2023,07.00-19.00,59.9486225,10.6782658
HOLMENENGA,Hele,12.05.2023,07.00-19.00,59.9483726,10.6772551
HOLMENGRENA,Hele,10.05.2023,07.00-19.00,59.9476798,10.6673627
HOLMENHAUGEN,Hele,10.05.2023,07.00-19.00,59.9519622,10.6651761
HOLMENKOLLEN KAP,P-plass,23.04.2023,19.00-07.00,59.9628446,10.6645917
HOLMENKOLLVEIEN,Ankerveien-Sørkedalsveien,19.04.2023,19.00-07.00,59.9581333,10.6727826
HOLMENKOLLVEIEN,Fra Ankerveien -,27.04.2023,19.00-07.00,59.9581333,10.6727826
HOLMENSLETTA,Hele,10.05.2023,07.00-19.00,59.9504354,10.6642441
HOLMENVEIEN,Hele,02.05.2023,07.00-19.00,59.9437416,10.6960586
HOLMESTRANDGATA,Sarpsborggata – Maridalsveien,09.05.2023,07.00-19.00,59.9425275,10.76025
HOLMLIA SENTER VEI,Hele,25.04.2023,07.00-19.00,59.8351224,10.7959205
HOLMLIAVEIEN,Hele,26.04.2023,19.00-07.00,59.8363054,10.7968108
HOLSTEINVEIEN,Hele,05.05.2023,07.00-19.00,59.9602866,10.742625
HOLSTEINVEIEN,Hele,08.05.2023,07.00-19.00,59.9602866,10.742625
HOLSTS GATE,Valdres Gata – Sandakerveien,04.05.2023,07.00-19.00,59.9316155,10.7610351
HOLTEGATA,Briskebyveien – Bogstadveien,13.04.2023,19.00-07.00,59.9219889,10.720201
HOLTEGATA,Over Mur Briskebyveien – Uranienborgveien,18.04.2023,07.00-19.00,59.9219889,10.720201
HOLTEGATA,Briskebyveien – President Harbitz` Gate,19.04.2023,07.00-19.00,59.9219889,10.720201
HOLTEGATA,Holtegt Plan 2 – Skovveien V/Ur.Borg Kirke,19.04.2023,07.00-19.00,59.9219889,10.720201
HOLTEGATA,Trapp V/Lallakroken,27.04.2023,07.00-19.00,59.9219889,10.720201
HOLTEGATA,Holtegt Plan 2 – Josefines Gt V/Ur.Borg Kirke,27.04.2023,07.00-19.00,59.9219889,10.720201
HOLTVEIEN,Hele,14.04.2023,07.00-19.00,59.8768151,10.7852774
HOMANSBAKKEN,"P-Plass V/Pilestredet, Bak Holdeplass",19.04.2023,07.00-19.00,59.9239159,10.7304901
HOMANSBAKKEN,Pilestredet – Ende V/Skoleport,19.04.2023,07.00-19.00,59.9239159,10.7304901
HOPPVEIEN,Hele,02.05.2023,07.00-19.00,59.8969957,10.8545479
HORTENGATA,Uelandsgate – Drøbakgata,26.04.2023,07.00-19.00,59.9390246,10.7509921
HOSPITSVEIEN,til Jerpefaret,22.05.2023,07.00-19.00,59.9690561,10.6597965
HOVFARET,Hele,25.05.2023,07.00-19.00,59.9257575,10.6771182
HOVINVEIEN,Økernveien – Grenseveien,04.05.2023,19.00-07.00,59.9197996,10.7864489
HOVSETERVEIEN,Hele,10.05.2023,07.00-19.00,59.9491331,10.653439
HUITFELDTS GATE,Munkedamsveien – Lassons Gate,13.04.2023,07.00-19.00,59.9131461,10.7235309
HUITFELDTS GATE,Henrik Ibsens Gate – Lassons Gate,14.04.2023,07.00-19.00,59.9131461,10.7235309
HUK AVENY,Bygdøy Kapellvei – Dronningen,08.05.2023,07.00-19.00,59.9044846,10.6867633
HUK TERRASSE,Museumsvn – Ende Blindvei,08.05.2023,07.00-19.00,59.9063643,10.6906597
HUKENVEIEN,Hele,08.05.2023,19.00-07.00,59.9724252,10.8740697
HULDREVEIEN,Hele,16.05.2023,07.00-19.00,59.9620926,10.6944667
HUMLEVEIEN,Hele,05.05.2023,07.00-19.00,59.9492018,10.7443854
HUSBYVEIEN,Hele,25.05.2023,07.00-19.00,59.9138688,10.7522454
HUSEBYBAKKEN,Hele,25.04.2023,07.00-19.00,59.9350949,10.6694879
HUSEBYGRENDA,Hele,02.05.2023,07.00-19.00,59.9425472,10.66774
HYGGEVEIEN,Hele,18.04.2023,07.00-19.00,59.8812291,10.7971356
HYLLVEIEN,Hele,24.05.2023,07.00-19.00,59.9246699,10.6919269
HÅKONS GATE,Åkebergveien – Ende,05.05.2023,07.00-19.00,59.9101019,10.7765682
HÅKONS GATE,P-Plass Åkerbergveien – Enden,05.05.2023,07.00-19.00,59.9101019,10.7765682
HÅVALDS VEI,Hele,18.04.2023,07.00-19.00,59.8852543,10.8024417
HØGDAVEIEN,Hele,09.05.2023,07.00-19.00,59.8872016,10.8132537
HØGDEFARET,Hele,20.04.2023,07.00-19.00,59.8886671,10.77968
HØGTUNVEIEN,Hele,25.04.2023,07.00-19.00,59.9493621,10.9086484
HØGÅSVEIEN,Hele,26.04.2023,07.00-19.00,59.8301189,10.8051134
HØLANDSGATA,Brinken – Ullernsakergata,15.05.2023,07.00-19.00,59.9097456,10.7815161
HØVLERIVEIEN,Hele,10.05.2023,07.00-19.00,59.9205472,10.8263101
HØYBRÅTEN IDRETT,P-Plass,13.04.2023,19.00-07.00,59.94561770000001,10.9125389
HØYBRÅTEN IDRETT,P-plass,23.04.2023,19.00-07.00,59.94561770000001,10.9125389
HØYBRÅTENVEIEN,Hele,03.05.2023,19.00-07.00,59.9446984,10.9246809
HØYDALSVEIEN,Hele,26.04.2023,07.00-19.00,59.8341364,10.8098938
HØYENHALLSVINGEN,Hele,03.05.2023,07.00-19.00,59.9042999,10.8164018
HØYENHALLVEIEN,Hele,03.05.2023,07.00-19.00,59.9034612,10.8142879
IDAS VEI,Hele,05.05.2023,07.00-19.00,59.9499293,10.9436231
IDRETTSVEIEN,Hele,25.04.2023,07.00-19.00,59.9474887,10.9159
IDUNS GATE,Maridalsveien – Fredensborgveien,12.05.2023,07.00-19.00,59.9201365,10.7503996
ILAGATA,Trapp V/Hermann Foss Gate,24.04.2023,07.00-19.00,59.9289727,10.7468326
ILAGATA,Evald Ryghs Gate – Hermann Foss Gate,25.04.2023,07.00-19.00,59.9289727,10.7468326
INDUSTRIGATA,Fagerborggata – Løvenskiolds Gate,13.04.2023,19.00-07.00,59.9261115,10.7203232
INGA BJØRNSONS VEI,P-Plass,20.04.2023,19.00-07.00,59.9678074,10.9298094
INGA BJØRNSONS VEI,Hele,02.05.2023,07.00-19.00,59.9678074,10.9298094
INGAR NILSENS VEI,Drammensveien – Ende,17.04.2023,07.00-19.00,59.9210909,10.6917382
INGEBORGS GATE,Strømsveien – Danmarks Gate,12.05.2023,07.00-19.00,59.9082113,10.7872356
INGEBRET ANDERSENS VEI,Hele,24.04.2023,07.00-19.00,59.9529098,10.8626044
INGEGJERDS VEI,Bygdøy Allé – Olav Kyrres Gate,13.04.2023,07.00-19.00,59.9185088,10.6925774
INGELBRECHT KNUDSSØNS GATE,Schultz` Gate – Industrigata,19.04.2023,07.00-19.00,59.9275361,10.7221267
INGES GATE,Konows Gate – Ende,28.04.2023,07.00-19.00,59.9030351,10.776719
INGIERS VEI,Hele,13.04.2023,07.00-19.00,59.8512558,10.7887735
INKOGNITO TERRASSE,Colbjørnsens Gate – Ende Blindvei,27.04.2023,07.00-19.00,59.9162993,10.719421
INKOGNITOGATA,Henrik Ibsens Gate – Riddervoldsgate,13.04.2023,19.00-07.00,59.9179121,10.7221434
INKOGNITOGATA,Riddervolds Gate – Uranienborgvn,27.04.2023,07.00-19.00,59.9179121,10.7221434
INNFARTSPARKERING GRORUD,P-Plass,20.04.2023,19.00-07.00,59.9602745,10.8845862
INNSPURTEN,Grensveien – Vallhall,07.05.2023,19.00-07.00,59.9163501,10.80406
IRISVEIEN,Hele,05.05.2023,07.00-19.00,59.9504209,10.7424864
ISDAMMEN ÅRVOLL,P-Plass Isdammen,16.04.2023,19.00-07.00,59.95574549999999,10.8237416
ISLANDS GATE,Sveriges Gate – Hjaltlandsgata,12.05.2023,07.00-19.00,59.9076201,10.7904371
IVAR AASENS VEI,Hele,18.04.2023,07.00-19.00,59.9415676,10.7076551
IVAR KNUTSONS VEI,Gangvei,24.04.2023,07.00-19.00,59.869287,10.7966238
IVAR WELLES VEI,Hele,21.04.2023,07.00-19.00,59.9125532,10.8532051
IVER OLSENS VEI,Hele,26.04.2023,07.00-19.00,59.9472918,10.7915008
IVER OLSENS VEI,Hele,28.04.2023,07.00-19.00,59.9472918,10.7915008
JACOB AALLS GATE,Professor Dahls Gate – Valkyriegata,17.04.2023,07.00-19.00,59.9294011,10.7194335
JACOB AALLS GATE,Valkyriegata – Suhms Gate,20.04.2023,07.00-19.00,59.9294011,10.7194335
JACOB AALLS GATE,Suhms Gate – Fagerborggata,10.05.2023,07.00-19.00,59.9294011,10.7194335
JACOB FAYES VEI,Hele,21.04.2023,07.00-19.00,59.9032001,10.6741617
JACOB HANSENS VEI,Hele,20.04.2023,07.00-19.00,59.940948,10.7026745
JACOBINE RYES VEI,Hele,02.05.2023,07.00-19.00,59.9644244,10.9188868
JACOBKIRKENS FRIOMRÅDE,Hausmanns Gate – Torggata,03.05.2023,07.00-19.00,59.9333639,10.637958
JANSBERGVEIEN,Hele,11.05.2023,07.00-19.00,59.9625652,10.7464992
JARBAKKEN,Hele,10.05.2023,07.00-19.00,59.9547808,10.6553492
JARLEGATA P-PLASS,Schweigaardsgate – Klostergata,28.04.2023,07.00-19.00,59.90856239999999,10.7748869
JARLSBORGVEIEN,Hele,25.05.2023,07.00-19.00,59.9301548,10.6723612
JEGERVEIEN,Hele,16.05.2023,07.00-19.00,59.9523413,10.7039855
JENS BJELKES GATE,Trapp V/Schublers Gate,12.05.2023,07.00-19.00,59.9155383,10.7690535
JENS BJELKES GATE,Tøyengata – Sexesgate (Plan 2),15.05.2023,07.00-19.00,59.9155383,10.7690535
JENS BJELKES GATE,Trapp V/ Tøyengata,15.05.2023,07.00-19.00,59.9155383,10.7690535
JENS BJELKES GATE,Rathkes Gate – Trondheimsveien,12.05.2023,07.00-19.00,59.9155383,10.7690535
JENS BJELKES GATE,Vahls Gate – Tøyengata,18.04.2023,07.00-19.00,59.9155383,10.7690535
JENS BJELKES GATE,Vahls Gate – Lakkegata,27.04.2023,19.00-07.00,59.9155383,10.7690535
JENS BJELKES GATE,(60-81) Sørligata – Kjølberggata,05.05.2023,19.00-07.00,59.9155383,10.7690535
JENSMESSVEIEN,Hele,02.05.2023,07.00-19.00,59.9438248,10.6759232
JEPPES VEI,Hele,10.05.2023,07.00-19.00,59.9467165,10.6519059
JERIKOVEIEN,Sam Eydes-Lindebergveien,10.05.2023,19.00-07.00,59.9370953,10.8899773
JERIKOVEIEN,Sam Eydes-Trimmen,11.05.2023,19.00-07.00,59.9370953,10.8899773
JERNBANEVEIEN,Smalvollveien-Østensjøveien,26.04.2023,19.00-07.00,59.9111288,10.8256593
JERNKROKEN,Hele,04.05.2023,19.00-07.00,59.9536236,10.8932749
JERPEFARET,Hele,23.05.2023,07.00-19.00,59.9699521,10.6489576
JERUSALEM BRO,Treshows Gate – Sandakerveien,03.05.2023,07.00-19.00,59.93948179999999,10.7667002
JESS CARLSENS GATE,Osterhausgata – Hausmanns Gate,12.05.2023,07.00-19.00,59.9182782,10.7517439
JOHAN CASTBERGS VEI,Hele,04.05.2023,07.00-19.00,59.9210654,10.8669613
JOHAN EVJES VEI,Hele,05.05.2023,07.00-19.00,59.9061959,10.824548
JOHAN HIRSCH` VEI,Hele,03.05.2023,07.00-19.00,59.8998089,10.8080705
JOHAN SCHARFFENBERGS VEI,Skullerudveien – Skullerudbakken,25.04.2023,19.00-07.00,59.8674836,10.8386741
JOHAN SCHARFFENBERGS VEI,Skullerudveien – Snuplass,10.05.2023,07.00-19.00,59.8674836,10.8386741
JOHAN SELMERS GATE,J K Johansens V – Johan Svendsens Gt,09.05.2023,07.00-19.00,59.9341783,10.7733472
JOHAN SVENDSENS GATE,Nordkappgata – Hegermanns Gate,04.05.2023,19.00-07.00,59.9347594,10.7722656
JOHAN SVERDRUPS VEI,Hele,12.05.2023,07.00-19.00,59.9340075,10.8113161
JOHANNES BRUNS GATE,Thereses Gate – Eugenies Gate,10.05.2023,07.00-19.00,59.928794,10.7355977
JOHN BRANDTS VEI,Hele,08.05.2023,07.00-19.00,59.9592171,10.7292794
JOHN COLLETTS ALLÈ,Hele,21.04.2023,07.00-19.00,59.9448811,10.7397142
JOHN G. MATTESONS VEI,Hele,04.05.2023,07.00-19.00,59.891731,10.8534424
JOHNNY SVORKMOS VEI,Hele,05.05.2023,07.00-19.00,59.9577805,10.9359678
JOLLY KRAMER-JOHANSENS GATE,Johan Selmers Gate – Ende/Gangvei,26.04.2023,07.00-19.00,59.9344081,10.7753943
JOMFRUBRÅTVEIEN,Jomfrustien – snuplass,19.04.2023,07.00-19.00,59.8887796,10.7746426
JOMFRUBRÅTVEIEN,Ekebergveien – Jomfrustien,20.04.2023,07.00-19.00,59.8887796,10.7746426
JOMFRUSTIEN,Hele,20.04.2023,07.00-19.00,59.8871282,10.7741925
JON SMESTADS VEI,Hele,25.04.2023,07.00-19.00,59.9378098,10.6801107
JONAS DAHLS VEI,Hele,26.05.2023,07.00-19.00,59.9209493,10.6434593
JONAS REINS GATE,Kirkeveien – Jacob Aalls Gate,15.05.2023,07.00-19.00,59.9324627,10.7262311
JONSOKVEIEN,Hele,20.04.2023,07.00-19.00,59.893381,10.7923519
JONSRUDVEIEN,Hele,24.05.2023,07.00-19.00,59.9249685,10.6937902
JORDAL,Idrettsanlegg,03.05.2023,07.00-19.00,59.9105133,10.7839723
JORINES VEI,Hele,05.05.2023,07.00-19.00,59.9506466,10.9297542
JOSEFINES GATE,Uranienborgvn – Pilestredet,13.04.2023,19.00-07.00,59.9229296,10.7259262
JOSEFINES GATE,Ur.Borgvn – Ukjent Gt V/Uranienborg Kirke,27.04.2023,07.00-19.00,59.9229296,10.7259262
JOTUNVEIEN,Hele,18.04.2023,07.00-19.00,59.8820763,10.8016928
JUPITERVEIEN,Hele,04.05.2023,07.00-19.00,59.9548554,10.7869779
JØRGEN LØVLANDS GATE,Rosenhoffgata – Konghellegata,03.05.2023,07.00-19.00,59.9291882,10.775772
JØRGEN MOES GATE,Industrigata – Holtegata,27.04.2023,07.00-19.00,59.9218981,10.7181586
JØRNSLØKKVEIEN,Hele,08.05.2023,07.00-19.00,59.8942061,10.8449191
JØTULVEIEN,Hele,03.05.2023,07.00-19.00,59.9138688,10.7522454
KAARE RØDDES PLASS,Tore Hund – Ansgar Sørlies Vei,02.05.2023,07.00-19.00,59.920073,10.7850814
KAIEKROKEN,Karihaugvn. – Snuplass,27.04.2023,07.00-19.00,59.9374856,10.8966362
KAKKELOVNSKROKEN,Hele,24.04.2023,07.00-19.00,59.9509902,10.8559488
KALBAKKFARET,Hele,21.04.2023,07.00-19.00,59.9479684,10.8625873
KALBAKKSLYNGEN,Hele,19.04.2023,07.00-19.00,59.948386,10.8674664
KALBAKKSTUBBEN,Hele,19.04.2023,07.00-19.00,59.9493811,10.8678568
KALBAKKVEIEN,Hele,20.04.2023,19.00-07.00,59.953171,10.8726021
KAMPEN PARK,Trapp Bøgata – Økernveien,15.05.2023,07.00-19.00,59.9150065,10.7798618
KAMPEN PARK,Bøgata – Økernveien,03.05.2023,07.00-19.00,59.9150065,10.7798618
KAMPENGATA,Normannsgata – Brinken,15.05.2023,07.00-19.00,59.9124902,10.7806038
KAMPHEIMVEIEN,Hele,02.05.2023,07.00-19.00,59.8953612,10.8453128
KANSLERGATA,Saxegaardsgt – Ende Middelalderparken,11.05.2023,07.00-19.00,59.9049436,10.7657433
KAPELVEIEN,Hele,26.04.2023,07.00-19.00,59.9138688,10.7522454
KAPTEIN OPPEGAARDS VEI,Hele,25.04.2023,07.00-19.00,59.8645821,10.8112624
KAREN PLATOUS VEI,Hele,28.04.2023,07.00-19.00,59.9675027,10.9146554
KARIHAUGVEIEN,Hele,09.05.2023,19.00-07.00,59.9397556,10.9105508
KARISTUVEIEN,Hele,24.04.2023,07.00-19.00,59.8711876,10.8016549
KARL ANDERSENS VEI,Hele,05.05.2023,07.00-19.00,59.9411844,10.9269047
KARL FLODS VEI,Hele,27.04.2023,07.00-19.00,59.9558053,10.8739789
KARL FOSSUMS VEI,Hele,28.04.2023,07.00-19.00,59.9607267,10.9267263
KARL FOSSUMSVEI,P-Plass,16.04.2023,19.00-07.00,59.9607992,10.926876
KARL STAAFFS VEI,Hele,18.04.2023,07.00-19.00,59.9193739,10.8132068
KARLSRUDVEIEN,Hele,21.04.2023,07.00-19.00,59.8776751,10.8028911
KARLSTADGATA,Københavngata – Snippen/Verksgata,12.05.2023,07.00-19.00,59.9243023,10.7652072
KAROLINERVEIEN,Hele,08.05.2023,07.00-19.00,59.9322168,10.9263453
KASAVEIEN,Hele,11.05.2023,19.00-07.00,60.0052959,10.7688137
KASTANJEVEIEN,Hele,26.04.2023,07.00-19.00,59.9516533,10.781238
KASTELLVEIEN,Solveien-Vingolfveien,13.04.2023,07.00-19.00,59.8676072,10.7880114
KASTELLVEIEN,Solveien – Ekebergveien,14.04.2023,07.00-19.00,59.8676072,10.7880114
KEYSERS GATE,Akersgata – Pilestredet,09.05.2023,19.00-07.00,59.9168278,10.7427534
KIERSCHOWS GATE,Kirkeveien – Kristiansands Gate,23.04.2023,19.00-07.00,59.9370162,10.7485315
KIKKUTVEIEN,Hele,04.05.2023,07.00-19.00,59.9564299,10.7949207
KILDALS VEI,Hele,03.05.2023,07.00-19.00,59.9036018,10.8096068
KILDEVEIEN,Årrundveien-Årvollveien,17.04.2023,07.00-19.00,59.9477488,10.8118816
KILDEVEIEN,Årvollveien-Selvbyggerveien,17.04.2023,07.00-19.00,59.9477488,10.8118816
KINGOS GATE,Waldemar Thranes Gate – Ende.,04.05.2023,07.00-19.00,59.9292131,10.7510348
KIRKEBAKKEN,Hele,18.04.2023,07.00-19.00,59.88414,10.7878272
KIRKEGÅRDSBAKKEN,Hele,26.04.2023,07.00-19.00,59.9544469,10.7752791
KIRKESVINGEN,Hele,03.05.2023,07.00-19.00,59.9570489,10.886055
KIRKEVEIEN,Halvdan Svartes Gate – Valkyriegata,19.04.2023,19.00-07.00,59.9313014,10.7218634
KIRKEVEIEN,Tåsenveien – Valkyriegata,25.04.2023,19.00-07.00,59.9313014,10.7218634
KIRKEÅSVEIEN,,18.04.2023,07.00-19.00,59.8823493,10.7909802
KIRSEBÆRLUNDEN,Finnmarksgata – Økernveien,03.05.2023,07.00-19.00,59.9158523,10.7755188
KITTEL-NIELSENS VEI,Hele,25.04.2023,07.00-19.00,59.8634349,10.8011816
KJELSÅSLØKKA,Hele,04.05.2023,07.00-19.00,59.9621755,10.7798729
KJELSÅSVEIEN,Maridalsveien-Grefsenveien (Buss/taxi plass),23.04.2023,19.00-07.00,59.9561579,10.7889332
KJELSÅSVEIEN,Myrerskogveien- Ring 3,25.04.2023,19.00-07.00,59.9561579,10.7889332
KJELSÅSVEIEN,Fra Myrerskogveien,09.05.2023,07.00-19.00,59.9561579,10.7889332
KJETILS VEI,Hele,09.05.2023,07.00-19.00,59.9632268,10.7862359
KJÆRLIGHETSSTIEN,Maridalsvn – Telthusbakken G/S Vei,20.04.2023,07.00-19.00,59.8791737,10.7761179
KJÆRLIGHETSSTIEN,Trapp V/Damstredet/Fredensborgveien,20.04.2023,07.00-19.00,59.8791737,10.7761179
KJØLBERGGATA,Trapp V/Undergang Til Tøyensenteret,27.04.2023,19.00-07.00,59.9123292,10.7772639
KJØLBERGGATA,Hele,27.04.2023,19.00-07.00,59.9123292,10.7772639
KLAUS TORGÅRDSVEI,fra rundkjøringen til Sognsveien,13.04.2023,19.00-07.00,59.9486943,10.7233757
KLEIVA,Hele,26.04.2023,07.00-19.00,59.9427546,10.9294213
KLEMETSRUDVEIEN,Hele,26.04.2023,19.00-07.00,59.8413613,10.8333278
KLINKERVEIEN,Hele,08.05.2023,07.00-19.00,59.9010241,10.8402981
KLOKKERGATA,Uelands Gate – S. Jaab. V + Blindvei,04.05.2023,07.00-19.00,59.9326041,10.7503497
KLOSTERGATA,Jarlegata – St. Halvards Gate,11.05.2023,07.00-19.00,59.9076998,10.7728414
KLOSTERHEIMVEIEN,Hele,10.05.2023,07.00-19.00,59.9141364,10.8193851
KLØFTERHAGEN,Hele,27.04.2023,07.00-19.00,59.9335035,10.8911717
KLØVERVEIEN,Hele,05.05.2023,07.00-19.00,59.9495579,10.7471128
KNEIKA,Hele,13.04.2023,07.00-19.00,59.8516592,10.7863053
KNUD BRYNS VEI,Hele,24.04.2023,19.00-07.00,59.9270413,10.8224799
KNUD GRAAHS GATE,Hans N. Hauges Gate – Brettevilles Gt,25.04.2023,07.00-19.00,59.9396526,10.7751598
KNUD KNUDSENS PLASS,Hele Plassen (Ullevålsvn X Geitmyrsvn),24.04.2023,07.00-19.00,59.9243961,10.7400973
KNUD ØYENS VEI,Hele,14.04.2023,07.00-19.00,59.8504642,10.7954071
KNUT ALVSSONS VEI,Trondheimsveien – Sinsenterrassen,03.05.2023,07.00-19.00,59.9335602,10.7798794
KNUT VALSTADS VEI,Hele,04.05.2023,07.00-19.00,59.8872259,10.850117
KOLDRUPS VEI,Hele,28.04.2023,07.00-19.00,59.9442805,10.7932037
KOLSTADGATA,Økernveien / Hagegata – Sigurds Gate,18.04.2023,19.00-07.00,59.9137899,10.7742471
KOMMANDØR T.T. ØGRIMS PLASS,Bernh. Getz Gt – Hele Rundkj.,09.05.2023,19.00-07.00,59.9174301,10.7427053
KONGEN P-PLASS,Frognerstranda – Frognerkilen,09.05.2023,19.00-07.00,59.91066379999999,10.7051307
KONGEVEIEN,Hele,22.05.2023,07.00-19.00,59.9639056,10.6662276
KONGHELLEGATA,Dynekilgata – Olav Schous Vei,03.05.2023,07.00-19.00,59.9298783,10.7779996
KONGLEVEIEN,Hele,05.05.2023,07.00-19.00,59.9590515,10.7421358
KONGLEVEIEN,Hele,08.05.2023,07.00-19.00,59.9590515,10.7421358
KONGSBERGGATA,P-Plass Bergens Gata – Maridalsveien,09.05.2023,07.00-19.00,59.941151,10.7599627
KONGSVEIEN,Hele,02.05.2023,19.00-07.00,59.8896051,10.7687229
KONGSVINGERGATA,Trapp V/Kolonihagene Vav Tønsberggata,26.04.2023,07.00-19.00,59.9400003,10.7540868
KONGSVINGERGATA,Trapp V/Kolonihagene Vav Kristiansands Gate,26.04.2023,07.00-19.00,59.9400003,10.7540868
KONGSVINGERGATA,Stavangergata – Maridalsveien,26.04.2023,07.00-19.00,59.9400003,10.7540868
KONGSVINGERGATA,P-Plass Tønsbergata – Grimstadgata,26.04.2023,07.00-19.00,59.9400003,10.7540868
KONOWS GATE,Dyvekes Vei – Enebakkveien,11.05.2023,19.00-07.00,59.90257,10.7825383
KONOWS GATE,Kongsveien – Dyvekes Vei,05.05.2023,19.00-07.00,59.90257,10.7825383
KONOWSGATE,Svartdalsveien – Enebakkveien,24.04.2023,19.00-07.00,59.90257,10.7825383
KONSUL SCHJELDRUPS VEI,Huk Aveny – P. T. Mallings Vei,08.05.2023,07.00-19.00,59.8993079,10.68231
KONVALLVEIEN,Hele,08.05.2023,07.00-19.00,59.9531279,10.734664
KONVENTVEIEN,Monolitveien-Sørkedalsveien,19.04.2023,07.00-19.00,59.932113,10.682605
KONVENTVEIEN,Monolitveien-Engebrets vei,19.04.2023,07.00-19.00,59.932113,10.682605
KONVENTVEIEN,fre Engebrets vei til snuplass,25.05.2023,07.00-19.00,59.932113,10.682605
KOPPERUDS VEI,Hele,25.05.2023,07.00-19.00,59.9317738,10.6715515
KORSVOLL,P-plass,20.04.2023,19.00-07.00,59.961731,10.7509474
KORSVOLL TERRASSE,Hele,11.05.2023,07.00-19.00,59.9631879,10.7628771
KORSVOLLBAKKEN,Hele,05.05.2023,07.00-19.00,59.9567901,10.7616541
KORSVOLLBRÅTAN,Hele,11.05.2023,07.00-19.00,59.9599355,10.7585138
KORTBØLGEN,Hele,21.04.2023,07.00-19.00,59.8665329,10.8149102
KRAFTS GATE,Colletts Gate – Frydenlundsgata,10.05.2023,07.00-19.00,59.9239542,10.7364438
KRAGS TERRASSE,Hele,23.05.2023,07.00-19.00,59.9564518,10.6759051
KRAGS VEI,Hele,23.05.2023,07.00-19.00,59.9554435,10.6695246
KRANVEIEN,Hele,08.05.2023,07.00-19.00,59.9027477,10.8440327
KREBS` GATE,Trøndergata – Per Kvibergs Gate,04.05.2023,07.00-19.00,59.9358549,10.7669086
KRINGKOLLEN,Hele,04.05.2023,07.00-19.00,59.8863585,10.8436863
KRINGSJÅGRENDA,Hele,11.05.2023,07.00-19.00,59.964009,10.7423127
KRINGVEIEN,Hele,25.04.2023,07.00-19.00,59.9463855,10.9092935
KRISTIAN AUBERTS VEI,Hele,25.04.2023,07.00-19.00,59.944843,10.636724
KRISTIAN BOGNERUDS VEI,Rødtvedtveien – Bom,24.04.2023,07.00-19.00,59.9559315,10.8675183
KRISTIAN BOGNERUDS VEI,Ammerudveien – Arthur Nordlies vei,27.04.2023,07.00-19.00,59.9559315,10.8675183
KRISTIANSANDS GATE,Kierschowsgate – Arendalsgata,23.04.2023,19.00-07.00,59.9382988,10.753118
KRISTIANSANDS GATE,Arendalsgata – Mogata,04.05.2023,07.00-19.00,59.9382988,10.753118
KRISTIANSVINGEN,Hele,23.05.2023,07.00-19.00,59.9582795,10.6851074
KRISTINE BONNEVIES VEI,Hele,17.04.2023,07.00-19.00,59.9495437,10.8277972
KRISTINELUNDVEIEN,Bygdøy Allé – H Svartes Gt/Solheimsgata,17.04.2023,07.00-19.00,59.9211318,10.6980897
KRISTINS VEI,Hele,19.04.2023,07.00-19.00,59.915366,10.8355284
KRISTOFFER AAMOTS GATE,Sandakerveien – Nydalsveien,24.04.2023,19.00-07.00,59.9465004,10.7654585
KRISTOFFER ROBINS VEI,Østre Akervei-Snuplass,24.04.2023,07.00-19.00,59.9544597,10.908469
KRISTOFFER ROBINS VEI,Haavard Martinsensvei-Østre Akervei,04.05.2023,19.00-07.00,59.9544597,10.908469
KROGS GATE,Løkkeveien – Ende,14.04.2023,07.00-19.00,59.9134311,10.7248838
KROKKLEIVA,Hele,13.04.2023,07.00-19.00,59.8637953,10.7884884
KROKLIVEIEN,Hele,12.05.2023,07.00-19.00,59.9387535,10.8194512
KROKUSVEIEN,Hele,05.05.2023,07.00-19.00,59.9589734,10.7371754
KROSSVEIEN,Hele,11.05.2023,07.00-19.00,59.9624395,10.7643502
KRUMGATA,Dovregata – Sofies Gate,25.04.2023,07.00-19.00,59.9224092,10.7369378
KRUSES GATE,Frognerveien – Lille Frogner Allé,27.04.2023,07.00-19.00,59.9188182,10.7130846
KRUTTVERKSVEIEN,Hele,25.04.2023,07.00-19.00,59.8465006,10.7877968
KRYSSVEIEN,Hele,11.05.2023,07.00-19.00,59.9363407,10.8216427
KUBA PARK,Maridalsveien – Marselis Gate,03.05.2023,07.00-19.00,59.92474699999999,10.7525975
KURVEIEN,Hele,04.05.2023,07.00-19.00,59.9604498,10.7941126
KVARTSVEIEN,Hele,25.04.2023,07.00-19.00,59.8654217,10.8251832
KVERNFARET,Hele,24.04.2023,07.00-19.00,59.9294311,10.6306157
KVERNKALLVEIEN,Hele,17.04.2023,07.00-19.00,59.9290852,10.6352056
KVERNSTIEN,Hele,18.04.2023,07.00-19.00,59.9387989,10.7114059
KVERNVEIEN,Fra Lysehagan til Bjørnsletta,17.04.2023,07.00-19.00,59.9313667,10.6356058
KVERNVEIEN,Fra Lysehagan,24.04.2023,07.00-19.00,59.9313667,10.6356058
KVÆRNERVEIEN,St. Halvards Gate – Ryenbergveien,11.05.2023,19.00-07.00,59.9055973,10.7803453
KYHNS VEI,Hele,13.04.2023,07.00-19.00,59.8550064,10.7942411
KYRRE GREPPS GATE,Nordkappgata – Borger Withs Gate,15.05.2023,07.00-19.00,59.9384756,10.7765441
KÅRES VEI,Hele,18.04.2023,07.00-19.00,59.8819339,10.806166
KØBENHAVNGATA,Helgesens Gate – Malmøgata/Ende V/Nr 10,18.04.2023,19.00-07.00,59.9269489,10.7665305
KØBENHAVNGATA,Marstrandsgata – Dælenggata,03.05.2023,07.00-19.00,59.9269489,10.7665305
LACHMANNS VEI,Hele,26.04.2023,19.00-07.00,59.964434,10.7962398
LACHMANNS VEI,Fra solemskogveien,09.05.2023,07.00-19.00,59.964434,10.7962398
LADEVEIEN,Hele,25.05.2023,07.00-19.00,59.9287668,10.6806149
LAKKEGATA,Grønland – Hausmanns Gt/Nylandsvn.,08.05.2023,19.00-07.00,59.9168392,10.7622961
LAKKEGATA,Urtegata – Jens Bjelkes Gt,27.04.2023,19.00-07.00,59.9168392,10.7622961
LALLAKROKEN,Briskebyvn – Briskebyvn/Portalen,27.04.2023,07.00-19.00,59.9196332,10.7174822
LAMBRECHTS GATE,Bygdøy Allé – Frognervn,27.04.2023,07.00-19.00,59.9166139,10.7122937
LAMMERS` GATE,Åsengata – Nordkappgata,26.04.2023,07.00-19.00,59.9374801,10.7723241
LANDEROKOLLEN,Hele,20.04.2023,07.00-19.00,59.9144059,10.8576363
LANDINGSVEIEN,Hele,10.05.2023,07.00-19.00,59.9505165,10.6567865
LANDSTADS GATE,Kingos Gate – Uelands Gate,04.05.2023,07.00-19.00,59.9292224,10.7499856
LANGAARDS GATE,Eckersbergs Gate – Schives Gt,18.04.2023,07.00-19.00,59.9226225,10.7129819
LANGBØLGEN,Hele,19.04.2023,19.00-07.00,59.8677098,10.813507
LANGBØLGEN,Nr. 50 – 58,24.04.2023,07.00-19.00,59.8677098,10.813507
LANGEMYRGRENDA,Hele,11.05.2023,07.00-19.00,59.9662532,10.7466819
LANGENGEN,Ensjøveien – Lensmann Hjorths Allé,02.05.2023,07.00-19.00,59.9120338,10.7929867
LANGERUDSVINGEN,"Hele, (Privat nord for Enebakkvien)",10.05.2023,07.00-19.00,59.8774827,10.8290153
LANGES GATE,St Olavs Gate – Frimanns Gt,24.04.2023,07.00-19.00,59.9188161,10.7399609
LANGLIA,Bergsalleèn- John Colletts Allè,21.04.2023,07.00-19.00,59.9445716,10.7377462
LANGLIA,John Collestts allè- Pastor Fangens vei,21.04.2023,07.00-19.00,59.9445716,10.7377462
LANGMYRVEIEN,Hele,11.05.2023,07.00-19.00,59.9623554,10.750801
LANGS LINJEN,Hele,14.04.2023,07.00-19.00,59.8580815,10.7863268
LANGSERVEIEN,Hele,09.05.2023,07.00-19.00,59.9684338,10.7934012
LANGVIKSVEIEN,Bygdøynesveien - Fredriksborgveien,21.04.2023,07.00-19.00,59.9040746,10.6868286
LANGVIKSVEIEN,Museumsveien – Fredriksborgveien,08.05.2023,07.00-19.00,59.9040746,10.6868286
LANGÅSVEIEN,Hele,11.05.2023,07.00-19.00,59.9610328,10.7599152
LARSBRÅTVEIEN,Hele,04.05.2023,07.00-19.00,59.9165244,10.8604853
LASSONS GATE,Parkveien – Huitfeldts Gate,13.04.2023,07.00-19.00,59.911937,10.720186
LAURA GUNDERSENS GATE,Thereses Gate – Louises Gate,24.04.2023,07.00-19.00,59.9265738,10.7326716
LAVRANS VEI,Hele,19.04.2023,07.00-19.00,59.9197121,10.842424
LEGATVEIEN,Hele,03.05.2023,07.00-19.00,59.9464026,10.7579783
LEIV EIRIKSSONS GATE,Skarpsnogata – Drammensveien,14.04.2023,07.00-19.00,59.9123528,10.7056265
LENSMANN HIORTHS ALLÉ,Hele,02.05.2023,07.00-19.00,59.9125645,10.794021
LERDALSFARET,Hele,26.04.2023,07.00-19.00,59.8392122,10.8082208
LERDALSVEIEN,Hele,26.04.2023,07.00-19.00,59.8371999,10.8093224
LERKEVEIEN,Hele,09.05.2023,07.00-19.00,59.9459285,10.8895665
LERSOLVEIEN,Hele,05.05.2023,07.00-19.00,59.9537602,10.7438161
LETTVINTVEIEN,Til Grefsenveien,26.04.2023,07.00-19.00,59.9459956,10.7851367
LIADALSVEIEN,Hele,25.04.2023,07.00-19.00,59.8487814,10.7899114
LIAKOLLVEIEN,Hele,26.04.2023,07.00-19.00,59.8290229,10.7993592
LIAVEIEN,Hele,28.04.2023,07.00-19.00,59.9453888,10.7972206
LIBAKKFARET,Hele,20.04.2023,07.00-19.00,59.8883652,10.8021922
LIBAKKVEIEN,Hele,20.04.2023,07.00-19.00,59.8888545,10.8039203
LILJEVEIEN,Hele,15.05.2023,07.00-19.00,59.9348086,10.7971522
LILLE BORGEN VEI,Hele,20.04.2023,07.00-19.00,59.9381406,10.7021281
LILLE FROGNER ALLÉ,Gyldenløves Gate – Kruses Gt/Trapp,18.04.2023,07.00-19.00,59.9194981,10.7123247
LILLE FROGNER ALLÉ,Kruses Gate – Frognerveien,27.04.2023,07.00-19.00,59.9194981,10.7123247
LILLE FROGNER ALLÉ,Trapp V/Kruses Gate,27.04.2023,07.00-19.00,59.9194981,10.7123247
LILLE FRØENS VEI,Hele,18.04.2023,07.00-19.00,59.9354142,10.7119054
LILLEBERGSVINGEN,Grenseveien – Ende,02.05.2023,07.00-19.00,59.9185667,10.798433
LILLEBERGVEIEN,Grenseveien – Lillebergsvingen,02.05.2023,07.00-19.00,59.9204217,10.796276
LILLEBORGGATA,Agathe Grøndahls Gate – Åsengata,26.04.2023,07.00-19.00,59.9368071,10.7701288
LILLETORGET P-PLASS,Stenersgate – Brugata,11.05.2023,19.00-07.00,59.91336749999999,10.756317
LILLEVANNSSKOGEN,Hele,23.05.2023,07.00-19.00,59.9799453,10.6550785
LILLEVANNSVEIEN,Hele,23.05.2023,07.00-19.00,59.9672693,10.6546807
LILLEVEIEN,Hele,27.04.2023,07.00-19.00,59.9496718,10.6460185
LILLOE-OLSENS VEI,Hele,04.05.2023,07.00-19.00,59.9550155,10.7832925
LILLOGATA,Treschows Gate – Ende Blindvei,25.04.2023,07.00-19.00,59.9424182,10.7678416
LILLOHAGEN,Lillogata – Sandakerveien,03.05.2023,07.00-19.00,59.94446569999999,10.7732405
LILLOSETERVEIEN,Hele,03.05.2023,07.00-19.00,59.9637717,10.8682527
LINDBÄCKVEIEN,Hele,25.04.2023,07.00-19.00,59.8686183,10.8031578
LINDEALLÈEN,Hele,26.04.2023,07.00-19.00,59.9477491,10.7848981
LINDEBERGLIA,Hele,24.04.2023,07.00-19.00,59.9318525,10.8733576
LINDEBERGVEIEN,P-Plass,20.04.2023,19.00-07.00,59.931772,10.8756741
LINDEBERGVEIEN,Hele,15.05.2023,19.00-07.00,59.931772,10.8756741
LINDEBERGÅSEN,Hele,24.04.2023,07.00-19.00,59.9295031,10.8762363
LINDEMANS GATE,Thomas Heftyes Gate – Ende,14.04.2023,07.00-19.00,59.9218587,10.7039149
LINDERNGATA,Armauer Hansens Gt – Geitmyrsveien,10.05.2023,07.00-19.00,59.9339743,10.7414643
LINDERUDSLETTA,Hele,16.05.2023,07.00-19.00,59.9456309,10.8429946
LINDERUDVEIEN,Hele,11.05.2023,07.00-19.00,59.9411477,10.8417613
LINHUSVEIEN,Fra Bjerkebakken,27.04.2023,07.00-19.00,59.9572879,10.6371258
LINHUSVEIEN,Fra Sørkedalsveien- Bjerkebakken,27.04.2023,07.00-19.00,59.9572879,10.6371258
LINJEVEIEN,Hele,02.05.2023,07.00-19.00,59.9480269,10.9200992
LINNEAVEIEN,Hele,19.04.2023,07.00-19.00,59.8982825,10.7929519
LINSTOWS GATE,Sven Bruns Gt – Wergelandsveien,09.05.2023,19.00-07.00,59.9193246,10.7318015
LJABRUBAKKEN,Hele,17.04.2023,07.00-19.00,59.8527374,10.802837
LJABRUDIAGONALEN,Hauketo – Ljansbrukveien,08.05.2023,19.00-07.00,59.8417365,10.7901914
LJABRUVEIEN,Grønmo – Hauketo,07.05.2023,19.00-07.00,59.8465292,10.8125762
LJABRUVEIEN,Hele,07.05.2023,19.00-07.00,59.8465292,10.8125762
LJANSBAKKEN,Hele,13.04.2023,07.00-19.00,59.8509427,10.7830021
LJANSBRUKVEIEN,,25.04.2023,19.00-07.00,59.8314507,10.7719849
LJANSBRUKVEIEN,PARKERING,10.05.2023,19.00-07.00,59.8314507,10.7719849
LOFOTGATA,Vøyensvingen – Maridalsveien,26.04.2023,07.00-19.00,59.9298726,10.7529711
LOFSRUDHØGDA,Hele,27.04.2023,07.00-19.00,59.8463516,10.8267563
LOFSRUDVEIEN,Hele,26.04.2023,19.00-07.00,59.8485808,10.8284335
LOFTHUS TERRASSE,Hele inn til nr 11,28.04.2023,07.00-19.00,59.9470779,10.7995094
LOFTHUSVEIEN,Årvollveien-Sperring,15.05.2023,07.00-19.00,59.9441419,10.7975802
LOFTHUSVEIEN,Fra Grefsenveien,28.04.2023,07.00-19.00,59.9441419,10.7975802
LOUISES GATE,Thereses Gt – Ullevålsvn – Colletts Gt,02.05.2023,19.00-07.00,59.9264256,10.7352832
LOVISENBERGGATA,Geitmyrsveien – Lovisenberg Sykehus,24.04.2023,07.00-19.00,59.9327645,10.7442875
LOVISENLUND,Hele,21.04.2023,07.00-19.00,59.9038073,10.673961
LUDVIG KARSTENS VEI,Hele,08.05.2023,07.00-19.00,59.9339828,10.9230093
LUFTFARTSVEIEN,Hele,10.05.2023,07.00-19.00,59.9476789,10.6616619
LUNAVEIEN,Hele,21.04.2023,07.00-19.00,59.8731458,10.8030529
LUNDEN,Hele,11.05.2023,07.00-19.00,59.9391105,10.8286049
LUNDLIVEIEN,Hele,12.05.2023,07.00-19.00,59.9371167,10.8129668
LUNDVEIEN,Hele,03.05.2023,07.00-19.00,59.9022616,10.8069533
LUNDÅSVEIEN,Starvn. inn til kryss,05.05.2023,07.00-19.00,59.9454397,10.9387317
LUNHVILEVEIEN,Hele,26.04.2023,19.00-07.00,59.8403963,10.832358
LUNHVILEVEIEN,PARKERING,10.05.2023,19.00-07.00,59.8403963,10.832358
LUNNESTIEN,Hele,04.05.2023,07.00-19.00,59.8874286,10.8452593
LUSETJERNVEIEN,Hele,26.04.2023,07.00-19.00,59.8338021,10.7835539
LUSETJERNVEIEN,PARKERING,10.05.2023,19.00-07.00,59.8338021,10.7835539
LUTVANNSKROKEN,Hele,04.05.2023,07.00-19.00,59.9271232,10.8716204
LUTVANNSVEIEN,Hele,04.05.2023,07.00-19.00,59.9218866,10.8741999
LYBEKKVEIEN,Hele,10.05.2023,07.00-19.00,59.9519227,10.6663251
LYDER SAGENS GATE,Fageborggata – Pilestredet,15.05.2023,07.00-19.00,59.9303421,10.7284994
LYNGTREKKET,Hele,26.04.2023,07.00-19.00,59.9430877,10.922836
LYNGVEIEN,Hele,19.04.2023,07.00-19.00,59.8953767,10.7963068
LYNGÅSVEIEN,Hele,04.05.2023,07.00-19.00,59.956534,10.7901976
LYSESKRENTEN,Hele,24.04.2023,07.00-19.00,59.9284827,10.6291529
LYSEVEIEN,Fra Vesteråsveien-Ullernkollen,17.04.2023,07.00-19.00,59.9309019,10.6404669
LYSEVEIEN,Til Vesteråsveien,17.04.2023,07.00-19.00,59.9309019,10.6404669
LYSHAGEN,Hele,17.04.2023,07.00-19.00,59.9138688,10.7522454
LYTTERVEIEN,Hele,09.05.2023,07.00-19.00,59.9667725,10.7706172
LÅKEBERGET,P-plass,17.04.2023,19.00-07.00,59.9799632,10.7572514
LÅVEVEIEN,Hele,08.05.2023,07.00-19.00,59.9049543,10.8351705
LÆRER HOLES VEI,Hele,02.05.2023,07.00-19.00,59.9434596,10.6676024
LØCHENVEIEN,Hele,21.04.2023,07.00-19.00,59.9029447,10.6936062
LØKKASKOGEN,Hele,12.05.2023,07.00-19.00,59.9555051,10.6791162
LØKKEVEIEN,Henrik Ibsens Gt – Ruseløkkvn,16.04.2023,19.00-07.00,59.9140782,10.7248179
LØKKEVEIEN X RUSELØKKVEIEN,Trapp V/Victoria Terrasse,16.04.2023,19.00-07.00,59.9131229,10.7270807
LØNNEVEIEN,Hele,09.05.2023,07.00-19.00,59.9402265,10.8881492
LØNNHAUGEN ALLÈ,Hele,12.05.2023,07.00-19.00,59.9419016,10.6941537
LØRENFARET,Lørenvangen – Ende,24.04.2023,19.00-07.00,59.931266,10.798504
LØRENVANGEN,Lørenveien – Dag Hammarskjølds Vei,24.04.2023,19.00-07.00,59.9306154,10.7965998
LØRENVEIEN,Hele,24.04.2023,19.00-07.00,59.9311104,10.7907056
LØVENSKIOLDS GATE,Frognerveien – Briskebyvn/Industrigt,14.04.2023,07.00-19.00,59.9208885,10.7128936
LØVSETDALEN,Hele,10.05.2023,07.00-19.00,59.8743198,10.8306456
LØVSETFARET,Hele,10.05.2023,07.00-19.00,59.8719167,10.8331814
LØVÅSVEIEN,Hele,03.05.2023,07.00-19.00,59.9461753,10.7475056
LØYPEVEIEN,Hele,08.05.2023,07.00-19.00,59.895692,10.8423986
MADSERUD ALLE`,Hele,24.05.2023,07.00-19.00,59.923335,10.6953251
MAGNEFARET,Hele,03.05.2023,07.00-19.00,59.901818,10.8057155
MAGNUS BARFOTS GATE,Olav Kyrres Gate – Frøyas Gate,17.04.2023,07.00-19.00,59.9182366,10.6953192
MAGNUS BERGS GATE,Thomas Heftyes Gate – Frognerveien,13.04.2023,07.00-19.00,59.9206305,10.7054831
MAGNUS HYDLES VEI,Hele,17.04.2023,07.00-19.00,59.8574499,10.8126638
MAGNUS` GATE,Åkebergveien – Gunhilds Gate,05.05.2023,07.00-19.00,59.9113264,10.7737558
MAILUNDVEIEN,Trondheimsveien – Fagerheimgata,27.04.2023,19.00-07.00,59.9317541,10.7757556
MAJORSTUVEIEN,Professor Dahls Gt – Kirkeveien,17.04.2023,19.00-07.00,59.9261652,10.7172709
MALERHAUGVEIEN,Grensveien – Snuplass,09.05.2023,19.00-07.00,59.9146808,10.7928593
MALMØGATA,Fagerheimgata – Gøteborggata,18.04.2023,19.00-07.00,59.9264995,10.7674413
MANDALLS GATE,Rubina Ranas Gt – Grønland,08.05.2023,19.00-07.00,59.9115681,10.7632452
MANGLEBERGVEIEN,Hele,03.05.2023,07.00-19.00,59.9004147,10.8100971
MANGLERUDVEIEN,Hele,03.05.2023,07.00-19.00,59.9013875,10.8106044
MARCUS THRANES GATE,Vogts Gate – Griffenfeldts Gate,25.04.2023,19.00-07.00,59.9326525,10.7591895
MARCUS THRANES GATE,Myraløkka P-Plass M. Th. Gt – Ende,25.04.2023,19.00-07.00,59.9326525,10.7591895
MARGRETHE PARMS VEI,Hele,28.04.2023,07.00-19.00,59.9665015,10.9088331
MARIA DEHLIS VEI,Hele,11.05.2023,19.00-07.00,59.9506406,10.8962212
MARIBOES GATE,Hammersborg Gt (Hi Ringen) – Hausmannsgt,03.05.2023,19.00-07.00,59.9171087,10.751429
MARIDALSVEIEN,Kjelsåsveien- Rundkjøring /v Nydalen bruks vei,23.04.2023,19.00-07.00,59.9487598,10.7595269
MARIDALSVEIEN,Kjelsåsveien-Snuplass,11.05.2023,19.00-07.00,59.9487598,10.7595269
MARIDALSVEIEN,Hausmanns Gate – Uelands Gate,10.05.2023,19.00-07.00,59.9487598,10.7595269
